{
  "BP001_1": [
    {
      "id": 727,
      "name": "Terminal Bas Express Batu Pahat",
      "route": "BP001",
      "bound_type": 1,
      "SEQUENCE": 1,
      "station_code": "BP001, BP002",
      "lat": "1.85336979",
      "lng": "102.92666980",
      "intersections": [
        {
          "withRoute": "BP002",
          "stopId": 1137,
          "distance": 0
        }
      ]
    },
    {
      "id": 726,
      "name": "Balai Polis Batu Pahat,Jalan Rahmat",
      "route": "BP001",
      "bound_type": 1,
      "SEQUENCE": 2,
      "station_code": "BP001, BP002",
      "lat": "1.84783893",
      "lng": "102.93475030"
    },
    {
      "id": 728,
      "name": "Kuarters Kediaman Pegawai IPD (Bus Stop)",
      "route": "BP001",
      "bound_type": 1,
      "SEQUENCE": 3,
      "station_code": "BP001",
      "lat": "1.84685600",
      "lng": "102.93715000"
    },
    {
      "id": 710,
      "name": "Dataran batu pahat",
      "route": "BP001",
      "bound_type": 1,
      "SEQUENCE": 4,
      "station_code": "BP001",
      "lat": "1.84500000",
      "lng": "102.93467000"
    },
    {
      "id": 711,
      "name": "Tasik Y ~ Tmn Rekreasi tasik Y",
      "route": "BP001",
      "bound_type": 1,
      "SEQUENCE": 5,
      "station_code": "BP001",
      "lat": "1.84304800",
      "lng": "102.93482300"
    },
    {
      "id": 712,
      "name": "SMK Dato Syed Esa",
      "route": "BP001",
      "bound_type": 1,
      "SEQUENCE": 6,
      "station_code": "BP001",
      "lat": "1.83879300",
      "lng": "102.93837800"
    },
    {
      "id": 713,
      "name": "Hospital Sultanah Nora Ismail",
      "route": "BP001",
      "bound_type": 1,
      "SEQUENCE": 7,
      "station_code": "BP001",
      "lat": "1.83670000",
      "lng": "102.94069300"
    },
    {
      "id": 714,
      "name": "Taman Soga (Jalan Daun Payung)",
      "route": "BP001",
      "bound_type": 1,
      "SEQUENCE": 8,
      "station_code": "BP001",
      "lat": "1.83691400",
      "lng": "102.93762700"
    },
    {
      "id": 715,
      "name": "Taman Soga (Jalan Tukas)",
      "route": "BP001",
      "bound_type": 1,
      "SEQUENCE": 9,
      "station_code": "BP001",
      "lat": "1.83818600",
      "lng": "102.93438400"
    },
    {
      "id": 716,
      "name": "Jalan Ampuan",
      "route": "BP001",
      "bound_type": 1,
      "SEQUENCE": 10,
      "station_code": "BP001",
      "lat": "1.83974400",
      "lng": "102.93097200"
    },
    {
      "id": 717,
      "name": "Majlis Perbandaran Batu Pahat ~ Tmn. Pantai (Jln Dato Syed Esa)",
      "route": "BP001",
      "bound_type": 1,
      "SEQUENCE": 11,
      "station_code": "BP001",
      "lat": "1.84249000",
      "lng": "102.92645600"
    },
    {
      "id": 718,
      "name": "Pasar Awam Batu Pahat",
      "route": "BP001",
      "bound_type": 1,
      "SEQUENCE": 12,
      "station_code": "BP001",
      "lat": "1.84747600",
      "lng": "102.92472700"
    }
  ],
  "BP002_0": [
    {
      "id": 2636,
      "name": "TAMAN UNIVERSITI",
      "route": "BP002",
      "bound_type": 0,
      "SEQUENCE": 12,
      "station_code": null,
      "lat": "1.84814100",
      "lng": "103.07251500"
    },
    {
      "id": 2637,
      "name": "KKTM SRI GADING",
      "route": "BP002",
      "bound_type": 0,
      "SEQUENCE": 13,
      "station_code": null,
      "lat": "1.85019000",
      "lng": "103.07996400"
    },
    {
      "id": 2638,
      "name": "UTHM",
      "route": "BP002",
      "bound_type": 0,
      "SEQUENCE": 14,
      "station_code": null,
      "lat": "1.85313300",
      "lng": "103.08831300"
    },
    {
      "id": 2639,
      "name": "PETRON PARIT RAJA",
      "route": "BP002",
      "bound_type": 0,
      "SEQUENCE": 15,
      "station_code": null,
      "lat": "1.86404700",
      "lng": "103.10918600"
    },
    {
      "id": 2640,
      "name": "KOMPLEKS NIAGA PARIT RAJA",
      "route": "BP002",
      "bound_type": 0,
      "SEQUENCE": 16,
      "station_code": null,
      "lat": "1.86649800",
      "lng": "103.11163800"
    },
    {
      "id": 2641,
      "name": "KLINIK KESIHATAN PARIT RAJA",
      "route": "BP002",
      "bound_type": 0,
      "SEQUENCE": 17,
      "station_code": null,
      "lat": "1.86379800",
      "lng": "103.10928100"
    },
    {
      "id": 2642,
      "name": "PARIT SEMPADAN",
      "route": "BP002",
      "bound_type": 0,
      "SEQUENCE": 18,
      "station_code": null,
      "lat": "1.85678800",
      "lng": "103.09866000"
    },
    {
      "id": 2643,
      "name": "FUJITSU",
      "route": "BP002",
      "bound_type": 0,
      "SEQUENCE": 19,
      "station_code": null,
      "lat": "1.85442100",
      "lng": "103.09327000"
    },
    {
      "id": 2644,
      "name": "OPPOSITE UTHM",
      "route": "BP002",
      "bound_type": 0,
      "SEQUENCE": 20,
      "station_code": null,
      "lat": "1.85239500",
      "lng": "103.08727900"
    },
    {
      "id": 2645,
      "name": "PARIT JELUTONG",
      "route": "BP002",
      "bound_type": 0,
      "SEQUENCE": 21,
      "station_code": null,
      "lat": "1.85114700",
      "lng": "103.08361300"
    },
    {
      "id": 2646,
      "name": "OPPOSITE SMK SRI GADING",
      "route": "BP002",
      "bound_type": 0,
      "SEQUENCE": 22,
      "station_code": null,
      "lat": "1.85054500",
      "lng": "103.05084700"
    },
    {
      "id": 2647,
      "name": "PARIT BUDIN",
      "route": "BP002",
      "bound_type": 0,
      "SEQUENCE": 23,
      "station_code": null,
      "lat": "1.85173800",
      "lng": "103.04283000"
    },
    {
      "id": 2648,
      "name": "IPG TUN HUSSEIN ONN",
      "route": "BP002",
      "bound_type": 0,
      "SEQUENCE": 24,
      "station_code": null,
      "lat": "1.87039000",
      "lng": "102.98529500"
    },
    {
      "id": 2649,
      "name": "OPPOSITE BP MALL",
      "route": "BP002",
      "bound_type": 0,
      "SEQUENCE": 25,
      "station_code": null,
      "lat": "1.86337700",
      "lng": "102.96327100"
    },
    {
      "id": 2650,
      "name": "THE SUMMIT BATU PAHAT",
      "route": "BP002",
      "bound_type": 0,
      "SEQUENCE": 26,
      "station_code": null,
      "lat": "1.85773800",
      "lng": "102.93481400"
    }
  ],
  "BP002_1": [
    {
      "id": 1137,
      "name": "Terminal Bas Express Batu Pahat",
      "route": "BP002",
      "bound_type": 1,
      "SEQUENCE": 1,
      "station_code": "BP001, BP002",
      "lat": "1.85336979",
      "lng": "102.92666980",
      "intersections": [
        {
          "withRoute": "BP001",
          "stopId": 727,
          "distance": 0
        }
      ]
    },
    {
      "id": 2626,
      "name": "MASJID JAMEK SULTAN ISMAIL",
      "route": "BP002",
      "bound_type": 1,
      "SEQUENCE": 2,
      "station_code": null,
      "lat": "1.85578300",
      "lng": "102.94732600"
    },
    {
      "id": 2627,
      "name": "PANTAI HOSPITAL BATU PAHAT",
      "route": "BP002",
      "bound_type": 1,
      "SEQUENCE": 3,
      "station_code": null,
      "lat": "1.86001900",
      "lng": "102.95021000"
    },
    {
      "id": 2628,
      "name": "BP MALL",
      "route": "BP002",
      "bound_type": 1,
      "SEQUENCE": 4,
      "station_code": null,
      "lat": "1.86362800",
      "lng": "102.96312600"
    },
    {
      "id": 2629,
      "name": "JALAN KLUANG",
      "route": "BP002",
      "bound_type": 1,
      "SEQUENCE": 5,
      "station_code": null,
      "lat": "1.86613300",
      "lng": "102.97177200"
    },
    {
      "id": 2630,
      "name": "PARIT HAJI MOHAMAD NOR",
      "route": "BP002",
      "bound_type": 1,
      "SEQUENCE": 6,
      "station_code": null,
      "lat": "1.86867500",
      "lng": "102.97873300"
    },
    {
      "id": 2631,
      "name": "COWBOY BATU PAHAT",
      "route": "BP002",
      "bound_type": 1,
      "SEQUENCE": 7,
      "station_code": null,
      "lat": "1.87040500",
      "lng": "102.98447500"
    },
    {
      "id": 2632,
      "name": "TAMAN MUTIARA",
      "route": "BP002",
      "bound_type": 1,
      "SEQUENCE": 8,
      "station_code": null,
      "lat": "1.86060600",
      "lng": "103.00413400"
    },
    {
      "id": 2633,
      "name": "PARIT SENGKUANG",
      "route": "BP002",
      "bound_type": 1,
      "SEQUENCE": 9,
      "station_code": null,
      "lat": "1.85504500",
      "lng": "103.02024700"
    },
    {
      "id": 2634,
      "name": "SRI GADING",
      "route": "BP002",
      "bound_type": 1,
      "SEQUENCE": 10,
      "station_code": null,
      "lat": "1.85389400",
      "lng": "103.02937600"
    },
    {
      "id": 2635,
      "name": "SMK SRI GADING",
      "route": "BP002",
      "bound_type": 1,
      "SEQUENCE": 11,
      "station_code": null,
      "lat": "1.85093900",
      "lng": "103.05129200"
    }
  ],
  "HSA_1": [
    {
      "id": 2471,
      "name": "Terminal Larkin",
      "route": "HSA",
      "bound_type": 1,
      "SEQUENCE": 1,
      "station_code": null,
      "lat": "1.49496000",
      "lng": "103.74241000",
      "intersections": [
        {
          "withRoute": "P101",
          "stopId": 214,
          "distance": 0
        },
        {
          "withRoute": "P103",
          "stopId": 1216,
          "distance": 0
        },
        {
          "withRoute": "P104",
          "stopId": 1217,
          "distance": 0
        },
        {
          "withRoute": "P113",
          "stopId": 1221,
          "distance": 0
        },
        {
          "withRoute": "P113-01",
          "stopId": 2880,
          "distance": 0
        },
        {
          "withRoute": "P211",
          "stopId": 1236,
          "distance": 0
        },
        {
          "withRoute": "P411",
          "stopId": 1232,
          "distance": 0
        }
      ]
    },
    {
      "id": 2472,
      "name": "Dewan Serbaguna JKR Daerah Johor Bahru",
      "route": "HSA",
      "bound_type": 1,
      "SEQUENCE": 2,
      "station_code": null,
      "lat": "1.49168658",
      "lng": "103.74089400",
      "intersections": [
        {
          "withRoute": "P101",
          "stopId": 298,
          "distance": 0
        },
        {
          "withRoute": "P104",
          "stopId": 1170,
          "distance": 0
        },
        {
          "withRoute": "P211",
          "stopId": 1088,
          "distance": 0
        },
        {
          "withRoute": "P411",
          "stopId": 1162,
          "distance": 0
        }
      ]
    },
    {
      "id": 2473,
      "name": "Taman Nong Chik,Jalan Kolam Ayer",
      "route": "HSA",
      "bound_type": 1,
      "SEQUENCE": 3,
      "station_code": null,
      "lat": "1.47222950",
      "lng": "103.73677320",
      "intersections": [
        {
          "withRoute": "P101",
          "stopId": 317,
          "distance": 0
        }
      ]
    },
    {
      "id": 2474,
      "name": "Tahfiz masjid nong chik",
      "route": "HSA",
      "bound_type": 1,
      "SEQUENCE": 4,
      "station_code": null,
      "lat": "1.46873000",
      "lng": "103.73679000",
      "intersections": [
        {
          "withRoute": "P101",
          "stopId": 168,
          "distance": 0
        },
        {
          "withRoute": "P101",
          "stopId": 316,
          "distance": 152.5
        }
      ]
    },
    {
      "id": 2475,
      "name": "Sekolah Kebangsaan Nong Chik,Jalan Kolam Ayer -",
      "route": "HSA",
      "bound_type": 1,
      "SEQUENCE": 5,
      "station_code": null,
      "lat": "1.46734971",
      "lng": "103.73679890",
      "intersections": [
        {
          "withRoute": "P101",
          "stopId": 316,
          "distance": 0
        }
      ]
    },
    {
      "id": 2476,
      "name": "Maktab Sultan Abu Bakar (English College)",
      "route": "HSA",
      "bound_type": 1,
      "SEQUENCE": 6,
      "station_code": null,
      "lat": "1.46258180",
      "lng": "103.73963820",
      "intersections": [
        {
          "withRoute": "P101",
          "stopId": 315,
          "distance": 0
        },
        {
          "withRoute": "P101",
          "stopId": 236,
          "distance": 136.2
        }
      ]
    },
    {
      "id": 2477,
      "name": "Yayasan Warisan Johor",
      "route": "HSA",
      "bound_type": 1,
      "SEQUENCE": 7,
      "station_code": null,
      "lat": "1.46209000",
      "lng": "103.74076000",
      "intersections": [
        {
          "withRoute": "P101",
          "stopId": 236,
          "distance": 0
        }
      ]
    },
    {
      "id": 2478,
      "name": "Hospital Sultanah Aminah",
      "route": "HSA",
      "bound_type": 1,
      "SEQUENCE": 8,
      "station_code": null,
      "lat": "1.45745000",
      "lng": "103.74675000",
      "intersections": [
        {
          "withRoute": "HSA-01",
          "stopId": 2878,
          "distance": 0
        },
        {
          "withRoute": "P101",
          "stopId": 37,
          "distance": 0
        }
      ]
    },
    {
      "id": 2479,
      "name": "Maahad Johor",
      "route": "HSA",
      "bound_type": 1,
      "SEQUENCE": 9,
      "station_code": null,
      "lat": "1.45669000",
      "lng": "103.74932000",
      "intersections": [
        {
          "withRoute": "HSA-01",
          "stopId": 2879,
          "distance": 8.9
        },
        {
          "withRoute": "P101",
          "stopId": 314,
          "distance": 8.9
        }
      ]
    },
    {
      "id": 2480,
      "name": "Pusat Islam Negeri Johor,Jalan Abu Bakar",
      "route": "HSA",
      "bound_type": 1,
      "SEQUENCE": 10,
      "station_code": null,
      "lat": "1.45666191",
      "lng": "103.74939880",
      "intersections": [
        {
          "withRoute": "HSA-01",
          "stopId": 2879,
          "distance": 0
        },
        {
          "withRoute": "P101",
          "stopId": 314,
          "distance": 0
        }
      ]
    },
    {
      "id": 2481,
      "name": "Klinik Kesihatan Mahmoodiah",
      "route": "HSA",
      "bound_type": 1,
      "SEQUENCE": 11,
      "station_code": null,
      "lat": "1.46256100",
      "lng": "103.74700600",
      "intersections": [
        {
          "withRoute": "HSA-01",
          "stopId": 2877,
          "distance": 0
        }
      ]
    }
  ],
  "HSA-01_0": [
    {
      "id": 2876,
      "name": "Penjara Ayer Molek",
      "route": "HSA-01",
      "bound_type": 0,
      "SEQUENCE": 1,
      "station_code": null,
      "lat": "1.46316400",
      "lng": "103.75562500"
    },
    {
      "id": 2877,
      "name": "Klinik Kesihatan Mahmoodiah",
      "route": "HSA-01",
      "bound_type": 0,
      "SEQUENCE": 2,
      "station_code": null,
      "lat": "1.46256100",
      "lng": "103.74700600",
      "intersections": [
        {
          "withRoute": "HSA",
          "stopId": 2481,
          "distance": 0
        }
      ]
    },
    {
      "id": 2878,
      "name": "Hospital Sultanah Aminah",
      "route": "HSA-01",
      "bound_type": 0,
      "SEQUENCE": 3,
      "station_code": null,
      "lat": "1.45745000",
      "lng": "103.74675000",
      "intersections": [
        {
          "withRoute": "HSA",
          "stopId": 2478,
          "distance": 0
        },
        {
          "withRoute": "P101",
          "stopId": 37,
          "distance": 0
        }
      ]
    },
    {
      "id": 2879,
      "name": "Pusat Islam Negeri Johor",
      "route": "HSA-01",
      "bound_type": 0,
      "SEQUENCE": 4,
      "station_code": null,
      "lat": "1.45666191",
      "lng": "103.74939880",
      "intersections": [
        {
          "withRoute": "HSA",
          "stopId": 2479,
          "distance": 8.9
        },
        {
          "withRoute": "HSA",
          "stopId": 2480,
          "distance": 0
        },
        {
          "withRoute": "P101",
          "stopId": 314,
          "distance": 0
        }
      ]
    }
  ],
  "HSI_2": [
    {
      "id": 2468,
      "name": "Lotus Tebrau",
      "route": "HSI",
      "bound_type": 2,
      "SEQUENCE": 1,
      "station_code": "HSI",
      "lat": "1.54681700",
      "lng": "103.79439900"
    },
    {
      "id": 2469,
      "name": "Hospital Sultan Ismail (Pintu Utama)",
      "route": "HSI",
      "bound_type": 2,
      "SEQUENCE": 2,
      "station_code": "HSI",
      "lat": "1.54716600",
      "lng": "103.79081700"
    },
    {
      "id": 2470,
      "name": "Klinik Kesihatan Sultan Ismail",
      "route": "HSI",
      "bound_type": 2,
      "SEQUENCE": 3,
      "station_code": "HSI",
      "lat": "1.54823100",
      "lng": "103.79007800"
    }
  ],
  "KL001_0": [
    {
      "id": 589,
      "name": "Taman Desa Kluang, Jalan Batu Pahat",
      "route": "KL001",
      "bound_type": 0,
      "SEQUENCE": 7,
      "station_code": "KL001",
      "lat": "2.01434361",
      "lng": "103.28767030"
    },
    {
      "id": 590,
      "name": "Taman Berlian Biru,Jalan Batu Pahat",
      "route": "KL001",
      "bound_type": 0,
      "SEQUENCE": 8,
      "station_code": "KL001",
      "lat": "2.01633233",
      "lng": "103.29456810"
    },
    {
      "id": 591,
      "name": "Taman Intan,Jalan Batu Pahat",
      "route": "KL001",
      "bound_type": 0,
      "SEQUENCE": 9,
      "station_code": "KL001",
      "lat": "2.01758270",
      "lng": "103.29784730"
    },
    {
      "id": 592,
      "name": "Laman Niaga Taman Intan, Kluang",
      "route": "KL001",
      "bound_type": 0,
      "SEQUENCE": 10,
      "station_code": "KL001",
      "lat": "2.01718145",
      "lng": "103.30053680"
    },
    {
      "id": 593,
      "name": "Sekolah Kebangsaan Seri Intan",
      "route": "KL001",
      "bound_type": 0,
      "SEQUENCE": 11,
      "station_code": "KL001",
      "lat": "2.01163377",
      "lng": "103.30392370"
    },
    {
      "id": 594,
      "name": "Taman Muhibbah",
      "route": "KL001",
      "bound_type": 0,
      "SEQUENCE": 12,
      "station_code": "KL001",
      "lat": "2.00463210",
      "lng": "103.31932710"
    },
    {
      "id": 595,
      "name": "Klinik Kesihatan Mengkibol",
      "route": "KL001",
      "bound_type": 0,
      "SEQUENCE": 13,
      "station_code": "KL001, SR004",
      "lat": "2.00722671",
      "lng": "103.32237220",
      "intersections": [
        {
          "withRoute": "SR004",
          "stopId": 1017,
          "distance": 0
        }
      ]
    },
    {
      "id": 596,
      "name": "Taman Sunrise, Mengkibol",
      "route": "KL001",
      "bound_type": 0,
      "SEQUENCE": 14,
      "station_code": "KL001, SR004",
      "lat": "2.01074388",
      "lng": "103.32159630",
      "intersections": [
        {
          "withRoute": "SR004",
          "stopId": 1186,
          "distance": 0
        }
      ]
    },
    {
      "id": 581,
      "name": "Perpustakaan Awam Kluang,Jalan Hashim",
      "route": "KL001",
      "bound_type": 0,
      "SEQUENCE": 15,
      "station_code": "KL001, KL002",
      "lat": "2.02768079",
      "lng": "103.31704910",
      "intersections": [
        {
          "withRoute": "KL002",
          "stopId": 1014,
          "distance": 0
        }
      ]
    }
  ],
  "KL001_1": [
    {
      "id": 2495,
      "name": "Terminal Bas dan Teksi Kluang",
      "route": "KL001",
      "bound_type": 1,
      "SEQUENCE": 1,
      "station_code": null,
      "lat": "2.03617833",
      "lng": "103.32281360",
      "intersections": [
        {
          "withRoute": "KL002",
          "stopId": 1001,
          "distance": 0
        },
        {
          "withRoute": "KL003",
          "stopId": 2657,
          "distance": -0.1
        },
        {
          "withRoute": "SR004",
          "stopId": 1002,
          "distance": 0
        }
      ]
    },
    {
      "id": 584,
      "name": "Taman Sri Kluang,Jalan Dato Ibrahim Majid",
      "route": "KL001",
      "bound_type": 1,
      "SEQUENCE": 2,
      "station_code": "KL001",
      "lat": "2.02878014",
      "lng": "103.30164380"
    },
    {
      "id": 585,
      "name": "Taman Permata,Jalan Berlian 1",
      "route": "KL001",
      "bound_type": 1,
      "SEQUENCE": 3,
      "station_code": "KL001",
      "lat": "2.02165786",
      "lng": "103.29412710"
    },
    {
      "id": 586,
      "name": "Taman Kluang Barat,Jalan Revertex",
      "route": "KL001",
      "bound_type": 1,
      "SEQUENCE": 4,
      "station_code": "KL001",
      "lat": "2.01371580",
      "lng": "103.29671120"
    },
    {
      "id": 587,
      "name": "Taman Kluang Barat,Jalan Yule Catto",
      "route": "KL001",
      "bound_type": 1,
      "SEQUENCE": 5,
      "station_code": "KL001",
      "lat": "2.01168014",
      "lng": "103.29295370"
    },
    {
      "id": 588,
      "name": "Taman Desa,Jalan 1",
      "route": "KL001",
      "bound_type": 1,
      "SEQUENCE": 6,
      "station_code": "KL001",
      "lat": "2.01016736",
      "lng": "103.28503910"
    }
  ],
  "KL002_0": [
    {
      "id": 577,
      "name": "Rumah Rakyat Gunung Lambak, Jalan Kota Tinggi - Kluang",
      "route": "KL002",
      "bound_type": 0,
      "SEQUENCE": 6,
      "station_code": "KL002",
      "lat": "2.01306145",
      "lng": "103.33809200"
    },
    {
      "id": 580,
      "name": "Kampung Gunung Lambak 2",
      "route": "KL002",
      "bound_type": 0,
      "SEQUENCE": 7,
      "station_code": "KL002",
      "lat": "2.02570014",
      "lng": "103.33068580"
    },
    {
      "id": 1014,
      "name": "Perpustakaan Awam Kluang,Jalan Hashim",
      "route": "KL002",
      "bound_type": 0,
      "SEQUENCE": 8,
      "station_code": "KL001, KL002",
      "lat": "2.02768079",
      "lng": "103.31704910",
      "intersections": [
        {
          "withRoute": "KL001",
          "stopId": 581,
          "distance": 0
        }
      ]
    },
    {
      "id": 2496,
      "name": "Sekolah Agama Bandar Kluang",
      "route": "KL002",
      "bound_type": 0,
      "SEQUENCE": 9,
      "station_code": null,
      "lat": "2.03239168",
      "lng": "103.31702620"
    }
  ],
  "KL002_1": [
    {
      "id": 1001,
      "name": "Terminal Bas dan Teksi Kluang",
      "route": "KL002",
      "bound_type": 1,
      "SEQUENCE": 1,
      "station_code": "KL001, KL002, SR004",
      "lat": "2.03617833",
      "lng": "103.32281360",
      "intersections": [
        {
          "withRoute": "KL001",
          "stopId": 2495,
          "distance": 0
        },
        {
          "withRoute": "KL003",
          "stopId": 2657,
          "distance": -0.1
        },
        {
          "withRoute": "SR004",
          "stopId": 1002,
          "distance": 0
        }
      ]
    },
    {
      "id": 575,
      "name": "Sekolah Agama Gunung Lambak,Jalan Mersing",
      "route": "KL002",
      "bound_type": 1,
      "SEQUENCE": 2,
      "station_code": "KL002",
      "lat": "2.03434883",
      "lng": "103.32843920"
    },
    {
      "id": 576,
      "name": "Taman Majupadu,Jalan Kampung Masjid",
      "route": "KL002",
      "bound_type": 1,
      "SEQUENCE": 3,
      "station_code": "KL002",
      "lat": "2.03162312",
      "lng": "103.33822050"
    },
    {
      "id": 579,
      "name": "SMK Jalan Kota Tinggi,Kluang",
      "route": "KL002",
      "bound_type": 1,
      "SEQUENCE": 4,
      "station_code": "KL002",
      "lat": "2.00824446",
      "lng": "103.34859660"
    },
    {
      "id": 578,
      "name": "Hospital Enche Besar Hajjah Khalsam,Kluang",
      "route": "KL002",
      "bound_type": 1,
      "SEQUENCE": 5,
      "station_code": "KL002",
      "lat": "2.00793404",
      "lng": "103.34837140"
    }
  ],
  "KL003_0": [
    {
      "id": 2745,
      "name": "Klinik Kesihatan Kahang",
      "route": "KL003",
      "bound_type": 0,
      "SEQUENCE": 16,
      "station_code": null,
      "lat": "2.21615300",
      "lng": "103.54092100",
      "intersections": [
        {
          "withRoute": "KL003",
          "stopId": 2744,
          "distance": 177
        }
      ]
    },
    {
      "id": 2746,
      "name": "SMK Kahang",
      "route": "KL003",
      "bound_type": 0,
      "SEQUENCE": 17,
      "station_code": null,
      "lat": "2.22149200",
      "lng": "103.54797400"
    },
    {
      "id": 2658,
      "name": "Kahang",
      "route": "KL003",
      "bound_type": 0,
      "SEQUENCE": 18,
      "station_code": null,
      "lat": "2.27422889",
      "lng": "103.61571589"
    },
    {
      "id": 2747,
      "name": "Kampung Pinggir",
      "route": "KL003",
      "bound_type": 0,
      "SEQUENCE": 19,
      "station_code": null,
      "lat": "2.26916200",
      "lng": "103.60980000"
    },
    {
      "id": 2748,
      "name": "Kampung Sri Lulut",
      "route": "KL003",
      "bound_type": 0,
      "SEQUENCE": 20,
      "station_code": null,
      "lat": "2.26189200",
      "lng": "103.60269900"
    },
    {
      "id": 2749,
      "name": "Kampung Peta",
      "route": "KL003",
      "bound_type": 0,
      "SEQUENCE": 21,
      "station_code": null,
      "lat": "2.24994600",
      "lng": "103.58424800"
    },
    {
      "id": 2750,
      "name": "Kampung Orang Asli Punjut",
      "route": "KL003",
      "bound_type": 0,
      "SEQUENCE": 22,
      "station_code": null,
      "lat": "2.24296700",
      "lng": "103.57636500"
    },
    {
      "id": 2751,
      "name": "Kampung Batu 24 Kahang",
      "route": "KL003",
      "bound_type": 0,
      "SEQUENCE": 23,
      "station_code": null,
      "lat": "2.23046100",
      "lng": "103.56039500"
    },
    {
      "id": 2752,
      "name": "SJK(T) Batu 24, Kahang ",
      "route": "KL003",
      "bound_type": 0,
      "SEQUENCE": 24,
      "station_code": null,
      "lat": "2.22766500",
      "lng": "103.55658800"
    },
    {
      "id": 2753,
      "name": "SMK Kahang (Return)",
      "route": "KL003",
      "bound_type": 0,
      "SEQUENCE": 25,
      "station_code": null,
      "lat": "2.22092200",
      "lng": "103.54785300"
    },
    {
      "id": 2754,
      "name": "Taman Sri Kahang",
      "route": "KL003",
      "bound_type": 0,
      "SEQUENCE": 26,
      "station_code": null,
      "lat": "2.21369200",
      "lng": "103.53809500",
      "intersections": [
        {
          "withRoute": "KL003",
          "stopId": 2744,
          "distance": 238.1
        }
      ]
    },
    {
      "id": 2756,
      "name": "Taman Kahang Baru",
      "route": "KL003",
      "bound_type": 0,
      "SEQUENCE": 27,
      "station_code": null,
      "lat": "2.21206900",
      "lng": "103.53601000",
      "intersections": [
        {
          "withRoute": "KL003",
          "stopId": 2743,
          "distance": 23.5
        }
      ]
    },
    {
      "id": 2757,
      "name": "Taman Desa Sejahtera",
      "route": "KL003",
      "bound_type": 0,
      "SEQUENCE": 28,
      "station_code": null,
      "lat": "2.10690500",
      "lng": "103.40293900"
    },
    {
      "id": 2758,
      "name": "Taman Perdana (Return)",
      "route": "KL003",
      "bound_type": 0,
      "SEQUENCE": 29,
      "station_code": null,
      "lat": "2.10534100",
      "lng": "103.39867400",
      "intersections": [
        {
          "withRoute": "KL003",
          "stopId": 2741,
          "distance": 10.8
        }
      ]
    },
    {
      "id": 2759,
      "name": "Kampung Gajah (Return)",
      "route": "KL003",
      "bound_type": 0,
      "SEQUENCE": 30,
      "station_code": null,
      "lat": "2.10360800",
      "lng": "103.39602100",
      "intersections": [
        {
          "withRoute": "KL003",
          "stopId": 2740,
          "distance": 84.5
        }
      ]
    },
    {
      "id": 2760,
      "name": "Penjara Kluang (Return)",
      "route": "KL003",
      "bound_type": 0,
      "SEQUENCE": 31,
      "station_code": null,
      "lat": "2.09728600",
      "lng": "103.38935900"
    },
    {
      "id": 2761,
      "name": "Taman Perindustrian Matahari",
      "route": "KL003",
      "bound_type": 0,
      "SEQUENCE": 32,
      "station_code": null,
      "lat": "2.07589600",
      "lng": "103.37065400"
    },
    {
      "id": 2762,
      "name": "Taman Puteri (Return)",
      "route": "KL003",
      "bound_type": 0,
      "SEQUENCE": 33,
      "station_code": null,
      "lat": "2.07006100",
      "lng": "103.36604300",
      "intersections": [
        {
          "withRoute": "KL003",
          "stopId": 2737,
          "distance": 25.4
        }
      ]
    },
    {
      "id": 2763,
      "name": "Kimberly-Clark Products",
      "route": "KL003",
      "bound_type": 0,
      "SEQUENCE": 34,
      "station_code": null,
      "lat": "2.06656300",
      "lng": "103.36487200",
      "intersections": [
        {
          "withRoute": "KL003",
          "stopId": 2736,
          "distance": 147.6
        }
      ]
    },
    {
      "id": 2764,
      "name": "Kampung Sembrong",
      "route": "KL003",
      "bound_type": 0,
      "SEQUENCE": 35,
      "station_code": null,
      "lat": "2.05791400",
      "lng": "103.36038100"
    },
    {
      "id": 2765,
      "name": "Kawasan Perindustrian Sembrong",
      "route": "KL003",
      "bound_type": 0,
      "SEQUENCE": 36,
      "station_code": null,
      "lat": "2.05546000",
      "lng": "103.35686900"
    },
    {
      "id": 2766,
      "name": "Taman Kasih",
      "route": "KL003",
      "bound_type": 0,
      "SEQUENCE": 37,
      "station_code": null,
      "lat": "2.05426800",
      "lng": "103.35492600",
      "intersections": [
        {
          "withRoute": "KL003",
          "stopId": 2735,
          "distance": 177.5
        }
      ]
    },
    {
      "id": 2767,
      "name": "SMK Sultan Abdul Jalil (Return)",
      "route": "KL003",
      "bound_type": 0,
      "SEQUENCE": 38,
      "station_code": null,
      "lat": "2.05065000",
      "lng": "103.34776400"
    },
    {
      "id": 2768,
      "name": "Taman Ria",
      "route": "KL003",
      "bound_type": 0,
      "SEQUENCE": 39,
      "station_code": null,
      "lat": "2.04143600",
      "lng": "103.33912800"
    },
    {
      "id": 2769,
      "name": "Kampung Paya Kluang (Return)",
      "route": "KL003",
      "bound_type": 0,
      "SEQUENCE": 40,
      "station_code": null,
      "lat": "2.03906100",
      "lng": "103.33645100"
    },
    {
      "id": 2770,
      "name": "Taman Aman Kluang",
      "route": "KL003",
      "bound_type": 0,
      "SEQUENCE": 41,
      "station_code": null,
      "lat": "2.03784300",
      "lng": "103.33370700"
    }
  ],
  "KL003_1": [
    {
      "id": 2657,
      "name": "Terminal Bas dan Teksi Kluang",
      "route": "KL003",
      "bound_type": 1,
      "SEQUENCE": 1,
      "station_code": null,
      "lat": "2.03617998",
      "lng": "103.32281295",
      "intersections": [
        {
          "withRoute": "KL001",
          "stopId": 2495,
          "distance": -0.1
        },
        {
          "withRoute": "KL002",
          "stopId": 1001,
          "distance": -0.1
        },
        {
          "withRoute": "SR004",
          "stopId": 1002,
          "distance": -0.1
        }
      ]
    },
    {
      "id": 2731,
      "name": "Affin Bank Kluang",
      "route": "KL003",
      "bound_type": 1,
      "SEQUENCE": 2,
      "station_code": null,
      "lat": "2.03688800",
      "lng": "103.33196200"
    },
    {
      "id": 2732,
      "name": "Kampung Paya Kluang",
      "route": "KL003",
      "bound_type": 1,
      "SEQUENCE": 3,
      "station_code": null,
      "lat": "2.03949900",
      "lng": "103.33657300"
    },
    {
      "id": 2733,
      "name": "SMK Sultan Abdul Jalil ",
      "route": "KL003",
      "bound_type": 1,
      "SEQUENCE": 4,
      "station_code": null,
      "lat": "2.05108200",
      "lng": "103.34778800"
    },
    {
      "id": 2734,
      "name": "Taman Makmur",
      "route": "KL003",
      "bound_type": 1,
      "SEQUENCE": 5,
      "station_code": null,
      "lat": "2.05186400",
      "lng": "103.34950700"
    },
    {
      "id": 2735,
      "name": "Taman Lambak",
      "route": "KL003",
      "bound_type": 1,
      "SEQUENCE": 6,
      "station_code": null,
      "lat": "2.05377500",
      "lng": "103.35361100",
      "intersections": [
        {
          "withRoute": "KL003",
          "stopId": 2766,
          "distance": 177.5
        }
      ]
    },
    {
      "id": 2736,
      "name": "Longterm Distribution",
      "route": "KL003",
      "bound_type": 1,
      "SEQUENCE": 7,
      "station_code": null,
      "lat": "2.06701100",
      "lng": "103.36479500",
      "intersections": [
        {
          "withRoute": "KL003",
          "stopId": 2763,
          "distance": 147.6
        }
      ]
    },
    {
      "id": 2737,
      "name": "Taman Puteri",
      "route": "KL003",
      "bound_type": 1,
      "SEQUENCE": 8,
      "station_code": null,
      "lat": "2.07036000",
      "lng": "103.36598000",
      "intersections": [
        {
          "withRoute": "KL003",
          "stopId": 2762,
          "distance": 25.4
        }
      ]
    },
    {
      "id": 2738,
      "name": "Kampung Melayu 2 Batu 6",
      "route": "KL003",
      "bound_type": 1,
      "SEQUENCE": 9,
      "station_code": null,
      "lat": "2.08380400",
      "lng": "103.37317800"
    },
    {
      "id": 2739,
      "name": "Penjara Kluang",
      "route": "KL003",
      "bound_type": 1,
      "SEQUENCE": 10,
      "station_code": null,
      "lat": "2.09829000",
      "lng": "103.39138100"
    },
    {
      "id": 2740,
      "name": "Kampung Gajah ",
      "route": "KL003",
      "bound_type": 1,
      "SEQUENCE": 11,
      "station_code": null,
      "lat": "2.10378000",
      "lng": "103.39593800",
      "intersections": [
        {
          "withRoute": "KL003",
          "stopId": 2759,
          "distance": 84.5
        }
      ]
    },
    {
      "id": 2741,
      "name": "Taman Perdana ",
      "route": "KL003",
      "bound_type": 1,
      "SEQUENCE": 12,
      "station_code": null,
      "lat": "2.10550600",
      "lng": "103.39864600",
      "intersections": [
        {
          "withRoute": "KL003",
          "stopId": 2758,
          "distance": 10.8
        }
      ]
    },
    {
      "id": 2742,
      "name": "Kampung Contoh Kahang",
      "route": "KL003",
      "bound_type": 1,
      "SEQUENCE": 13,
      "station_code": null,
      "lat": "2.20676100",
      "lng": "103.52852900"
    },
    {
      "id": 2743,
      "name": "Taman Ria Kahang",
      "route": "KL003",
      "bound_type": 1,
      "SEQUENCE": 14,
      "station_code": null,
      "lat": "2.21203700",
      "lng": "103.53576900",
      "intersections": [
        {
          "withRoute": "KL003",
          "stopId": 2756,
          "distance": 23.5
        }
      ]
    },
    {
      "id": 2744,
      "name": "Taman Kahang Muhibah",
      "route": "KL003",
      "bound_type": 1,
      "SEQUENCE": 15,
      "station_code": null,
      "lat": "2.21509200",
      "lng": "103.53972500",
      "intersections": [
        {
          "withRoute": "KL003",
          "stopId": 2745,
          "distance": 177
        },
        {
          "withRoute": "KL003",
          "stopId": 2754,
          "distance": 238.1
        }
      ]
    }
  ],
  "KT001_1": [
    {
      "id": 2325,
      "name": "Terminal Tun Sri Lanang, Kota Tinggi",
      "route": "KT001",
      "bound_type": 1,
      "SEQUENCE": 1,
      "station_code": null,
      "lat": "1.72931073",
      "lng": "103.90193978",
      "intersections": [
        {
          "withRoute": "KT002",
          "stopId": 2327,
          "distance": 0
        },
        {
          "withRoute": "KT003",
          "stopId": 2660,
          "distance": 0
        },
        {
          "withRoute": "PE004",
          "stopId": 476,
          "distance": 0
        }
      ]
    },
    {
      "id": 466,
      "name": "Hospital Kota Tinggi",
      "route": "KT001",
      "bound_type": 1,
      "SEQUENCE": 2,
      "station_code": "KT001",
      "lat": "1.73606000",
      "lng": "103.89962000"
    },
    {
      "id": 467,
      "name": "Taman Kota Jaya",
      "route": "KT001",
      "bound_type": 1,
      "SEQUENCE": 3,
      "station_code": "KT001",
      "lat": "1.73710000",
      "lng": "103.89069000"
    },
    {
      "id": 474,
      "name": "SMK Taman Kota Jaya",
      "route": "KT001",
      "bound_type": 1,
      "SEQUENCE": 4,
      "station_code": "KT001",
      "lat": "1.74290257",
      "lng": "103.89009360"
    },
    {
      "id": 475,
      "name": "SK Laksamana Kota Tinggi",
      "route": "KT001",
      "bound_type": 1,
      "SEQUENCE": 5,
      "station_code": "KT001",
      "lat": "1.74328327",
      "lng": "103.90516190"
    },
    {
      "id": 468,
      "name": "Kipmart Kota Tinggi",
      "route": "KT001",
      "bound_type": 1,
      "SEQUENCE": 6,
      "station_code": "KT001",
      "lat": "1.73374000",
      "lng": "103.90568000"
    }
  ],
  "KT002_0": [
    {
      "id": 489,
      "name": "Taman Sri Saujana,Persiaran Sri Saujana",
      "route": "KT002",
      "bound_type": 0,
      "SEQUENCE": 11,
      "station_code": "KT002",
      "lat": "1.67297037",
      "lng": "103.85345540"
    },
    {
      "id": 488,
      "name": "Ladang Tai Tak,Jalan Kota Tinggi",
      "route": "KT002",
      "bound_type": 0,
      "SEQUENCE": 12,
      "station_code": "KT002",
      "lat": "1.68599867",
      "lng": "103.86421400"
    },
    {
      "id": 486,
      "name": "Kuil Sri Maha Mariamman Devasthanam,Jalan Kota Tinggi",
      "route": "KT002",
      "bound_type": 0,
      "SEQUENCE": 13,
      "station_code": "KT002",
      "lat": "1.69155788",
      "lng": "103.86948320"
    },
    {
      "id": 484,
      "name": "Kawasan Perindustrian Jalan Johor",
      "route": "KT002",
      "bound_type": 0,
      "SEQUENCE": 14,
      "station_code": "KT002",
      "lat": "1.70090914",
      "lng": "103.87941020"
    },
    {
      "id": 483,
      "name": "Gereja Bethany,Jalan Johor",
      "route": "KT002",
      "bound_type": 0,
      "SEQUENCE": 15,
      "station_code": "KT002",
      "lat": "1.71100786",
      "lng": "103.88038050"
    },
    {
      "id": 481,
      "name": "Taman Kota Intan,Jalan Johor",
      "route": "KT002",
      "bound_type": 0,
      "SEQUENCE": 16,
      "station_code": "KT002",
      "lat": "1.71748255",
      "lng": "103.88419610"
    },
    {
      "id": 472,
      "name": "Jalan Johor Kota Tinggi",
      "route": "KT002",
      "bound_type": 0,
      "SEQUENCE": 17,
      "station_code": "KT002",
      "lat": "1.71913000",
      "lng": "103.89006000"
    },
    {
      "id": 478,
      "name": "Opposite Econsave,Jalan Johor",
      "route": "KT002",
      "bound_type": 0,
      "SEQUENCE": 18,
      "station_code": "KT002",
      "lat": "1.71950674",
      "lng": "103.89347260"
    },
    {
      "id": 470,
      "name": "SMK Tun Habab",
      "route": "KT002",
      "bound_type": 0,
      "SEQUENCE": 19,
      "station_code": "KT002",
      "lat": "1.72159450",
      "lng": "103.89712650",
      "intersections": [
        {
          "withRoute": "KT002",
          "stopId": 469,
          "distance": 84.5
        }
      ]
    }
  ],
  "KT002_1": [
    {
      "id": 2327,
      "name": "Terminal Tun Sri Lanang, Kota Tinggi",
      "route": "KT002",
      "bound_type": 1,
      "SEQUENCE": 1,
      "station_code": "KT002",
      "lat": "1.72931073",
      "lng": "103.90193978",
      "intersections": [
        {
          "withRoute": "KT001",
          "stopId": 2325,
          "distance": 0
        },
        {
          "withRoute": "KT003",
          "stopId": 2660,
          "distance": 0
        },
        {
          "withRoute": "PE004",
          "stopId": 476,
          "distance": 0
        }
      ]
    },
    {
      "id": 477,
      "name": "Padang Awam MDKT",
      "route": "KT002",
      "bound_type": 1,
      "SEQUENCE": 2,
      "station_code": "KT002",
      "lat": "1.72399812",
      "lng": "103.89875260"
    },
    {
      "id": 469,
      "name": "Opposite SMK Tun Habab",
      "route": "KT002",
      "bound_type": 1,
      "SEQUENCE": 3,
      "station_code": "KT002",
      "lat": "1.72155696",
      "lng": "103.89735150",
      "intersections": [
        {
          "withRoute": "KT002",
          "stopId": 470,
          "distance": 84.5
        }
      ]
    },
    {
      "id": 471,
      "name": "Jalan Johor (Tmn Daiman Jaya)",
      "route": "KT002",
      "bound_type": 1,
      "SEQUENCE": 4,
      "station_code": "KT002",
      "lat": "1.71922000",
      "lng": "103.89342000"
    },
    {
      "id": 479,
      "name": "Taman Sri Lalang",
      "route": "KT002",
      "bound_type": 1,
      "SEQUENCE": 5,
      "station_code": "KT002",
      "lat": "1.71888104",
      "lng": "103.89010760"
    },
    {
      "id": 480,
      "name": "Taman Daiman Jaya,Jalan Johor",
      "route": "KT002",
      "bound_type": 1,
      "SEQUENCE": 6,
      "station_code": "KT002",
      "lat": "1.71739153",
      "lng": "103.88468950"
    },
    {
      "id": 482,
      "name": "Kulim Training Centre,Jalan Johor",
      "route": "KT002",
      "bound_type": 1,
      "SEQUENCE": 7,
      "station_code": "KT002",
      "lat": "1.71092613",
      "lng": "103.88071190"
    },
    {
      "id": 485,
      "name": "Opposite Kawasan Perindustrian Jalan Johor",
      "route": "KT002",
      "bound_type": 1,
      "SEQUENCE": 8,
      "station_code": "KT002",
      "lat": "1.70037443",
      "lng": "103.87962610"
    },
    {
      "id": 487,
      "name": "Opposite Ladang Tai Tak,Jalan Kota Tinggi",
      "route": "KT002",
      "bound_type": 1,
      "SEQUENCE": 9,
      "station_code": "KT002",
      "lat": "1.68580242",
      "lng": "103.86445910"
    },
    {
      "id": 473,
      "name": "Persiaran Sri Saujana (Simpang SS8)",
      "route": "KT002",
      "bound_type": 1,
      "SEQUENCE": 10,
      "station_code": "KT002",
      "lat": "1.66825193",
      "lng": "103.85396390"
    }
  ],
  "KT003_0": [
    {
      "id": 2793,
      "name": "GIATMARA TG. SEDILI",
      "route": "KT003",
      "bound_type": 0,
      "SEQUENCE": 16,
      "station_code": "KT003",
      "lat": "1.92540500",
      "lng": "104.10607700"
    },
    {
      "id": 2794,
      "name": "Kampung Teluk Jeri",
      "route": "KT003",
      "bound_type": 0,
      "SEQUENCE": 17,
      "station_code": "KT003",
      "lat": "1.92513500",
      "lng": "104.09424000",
      "intersections": [
        {
          "withRoute": "KT003",
          "stopId": 2788,
          "distance": 14.4
        }
      ]
    },
    {
      "id": 2795,
      "name": "Kampung Sentosa (Ke Kota Tinggi)",
      "route": "KT003",
      "bound_type": 0,
      "SEQUENCE": 18,
      "station_code": "KT003",
      "lat": "1.92309000",
      "lng": "104.08867300",
      "intersections": [
        {
          "withRoute": "KT003",
          "stopId": 2787,
          "distance": 32.9
        }
      ]
    },
    {
      "id": 2796,
      "name": "Kampung Singapura",
      "route": "KT003",
      "bound_type": 0,
      "SEQUENCE": 19,
      "station_code": "KT003",
      "lat": "1.91701100",
      "lng": "104.07951400",
      "intersections": [
        {
          "withRoute": "KT003",
          "stopId": 2786,
          "distance": 21
        }
      ]
    },
    {
      "id": 2797,
      "name": "Sekolah Agama Kg. Gembut (Ke kota Tinggi)",
      "route": "KT003",
      "bound_type": 0,
      "SEQUENCE": 20,
      "station_code": "KT003",
      "lat": "1.90082700",
      "lng": "104.06125600",
      "intersections": [
        {
          "withRoute": "KT003",
          "stopId": 2785,
          "distance": 81.1
        }
      ]
    },
    {
      "id": 2798,
      "name": "SK Gembut (Ke Kota Tinggi)",
      "route": "KT003",
      "bound_type": 0,
      "SEQUENCE": 21,
      "station_code": "KT003",
      "lat": "1.89926300",
      "lng": "104.05888000",
      "intersections": [
        {
          "withRoute": "KT003",
          "stopId": 2784,
          "distance": 34.2
        }
      ]
    },
    {
      "id": 2799,
      "name": "Kampung Sayang (Ke Kota Tinggi)",
      "route": "KT003",
      "bound_type": 0,
      "SEQUENCE": 22,
      "station_code": "KT003",
      "lat": "1.88108200",
      "lng": "104.04335700",
      "intersections": [
        {
          "withRoute": "KT003",
          "stopId": 2783,
          "distance": 126.3
        }
      ]
    },
    {
      "id": 2800,
      "name": "SK Mawai",
      "route": "KT003",
      "bound_type": 0,
      "SEQUENCE": 23,
      "station_code": "KT003",
      "lat": "1.85698900",
      "lng": "103.98687000",
      "intersections": [
        {
          "withRoute": "KT003",
          "stopId": 2782,
          "distance": 126.7
        }
      ]
    },
    {
      "id": 2801,
      "name": "Kg Mawai Baharu (Ke Kota Tinggi )",
      "route": "KT003",
      "bound_type": 0,
      "SEQUENCE": 24,
      "station_code": "KT003",
      "lat": "1.85096900",
      "lng": "103.97462100"
    },
    {
      "id": 2802,
      "name": "Kampung Mawai (Ke Kota Tinggi )",
      "route": "KT003",
      "bound_type": 0,
      "SEQUENCE": 25,
      "station_code": "KT003",
      "lat": "1.85005300",
      "lng": "103.96713200",
      "intersections": [
        {
          "withRoute": "KT003",
          "stopId": 2780,
          "distance": 118.5
        }
      ]
    },
    {
      "id": 2804,
      "name": "Simpang Mawai",
      "route": "KT003",
      "bound_type": 0,
      "SEQUENCE": 26,
      "station_code": "KT003",
      "lat": "1.84272000",
      "lng": "103.95907800"
    }
  ],
  "KT003_1": [
    {
      "id": 2660,
      "name": "Terminal Tun Sri Lanang, Kota Tinggi",
      "route": "KT003",
      "bound_type": 1,
      "SEQUENCE": 1,
      "station_code": "KT003",
      "lat": "1.72931073",
      "lng": "103.90193978",
      "intersections": [
        {
          "withRoute": "KT001",
          "stopId": 2325,
          "distance": 0
        },
        {
          "withRoute": "KT002",
          "stopId": 2327,
          "distance": 0
        },
        {
          "withRoute": "PE004",
          "stopId": 476,
          "distance": 0
        }
      ]
    },
    {
      "id": 2779,
      "name": "Bank Muamalat Kota Tinggi",
      "route": "KT003",
      "bound_type": 1,
      "SEQUENCE": 2,
      "station_code": "KT003",
      "lat": "1.73381600",
      "lng": "103.90531700"
    },
    {
      "id": 2780,
      "name": "Kampung Mawai",
      "route": "KT003",
      "bound_type": 1,
      "SEQUENCE": 3,
      "station_code": "KT003",
      "lat": "1.85001000",
      "lng": "103.96601300",
      "intersections": [
        {
          "withRoute": "KT003",
          "stopId": 2802,
          "distance": 118.5
        }
      ]
    },
    {
      "id": 2781,
      "name": "Kampung Mawai Baharu",
      "route": "KT003",
      "bound_type": 1,
      "SEQUENCE": 4,
      "station_code": "KT003",
      "lat": "1.85174700",
      "lng": "103.97122800"
    },
    {
      "id": 2782,
      "name": "Pusat Komuniti Desa Mawai Baru",
      "route": "KT003",
      "bound_type": 1,
      "SEQUENCE": 5,
      "station_code": "KT003",
      "lat": "1.85668500",
      "lng": "103.98589900",
      "intersections": [
        {
          "withRoute": "KT003",
          "stopId": 2800,
          "distance": 126.7
        }
      ]
    },
    {
      "id": 2783,
      "name": "Kampung Sayang ",
      "route": "KT003",
      "bound_type": 1,
      "SEQUENCE": 6,
      "station_code": "KT003",
      "lat": "1.88193700",
      "lng": "104.04273600",
      "intersections": [
        {
          "withRoute": "KT003",
          "stopId": 2799,
          "distance": 126.3
        }
      ]
    },
    {
      "id": 2784,
      "name": "SK Gembut ",
      "route": "KT003",
      "bound_type": 1,
      "SEQUENCE": 7,
      "station_code": "KT003",
      "lat": "1.89929100",
      "lng": "104.05851900",
      "intersections": [
        {
          "withRoute": "KT003",
          "stopId": 2798,
          "distance": 34.2
        }
      ]
    },
    {
      "id": 2785,
      "name": "Sekolah Agama Kampung Gembut",
      "route": "KT003",
      "bound_type": 1,
      "SEQUENCE": 8,
      "station_code": "KT003",
      "lat": "1.90123600",
      "lng": "104.06159700",
      "intersections": [
        {
          "withRoute": "KT003",
          "stopId": 2797,
          "distance": 81.1
        }
      ]
    },
    {
      "id": 2786,
      "name": "Kampung Singapura",
      "route": "KT003",
      "bound_type": 1,
      "SEQUENCE": 9,
      "station_code": "KT003",
      "lat": "1.91716100",
      "lng": "104.07943800",
      "intersections": [
        {
          "withRoute": "KT003",
          "stopId": 2796,
          "distance": 21
        }
      ]
    },
    {
      "id": 2787,
      "name": "Kampung Sentosa",
      "route": "KT003",
      "bound_type": 1,
      "SEQUENCE": 10,
      "station_code": "KT003",
      "lat": "1.92280800",
      "lng": "104.08848700",
      "intersections": [
        {
          "withRoute": "KT003",
          "stopId": 2795,
          "distance": 32.9
        }
      ]
    },
    {
      "id": 2788,
      "name": "Sekolah Agama Seri Mahkota ",
      "route": "KT003",
      "bound_type": 1,
      "SEQUENCE": 11,
      "station_code": "KT003",
      "lat": "1.92532600",
      "lng": "104.09426500",
      "intersections": [
        {
          "withRoute": "KT003",
          "stopId": 2794,
          "distance": 14.4
        }
      ]
    },
    {
      "id": 2789,
      "name": "LKIM Tg. Sedili",
      "route": "KT003",
      "bound_type": 1,
      "SEQUENCE": 12,
      "station_code": "KT003",
      "lat": "1.92881900",
      "lng": "104.11308100"
    },
    {
      "id": 2790,
      "name": "SK Sri Setia Jaya",
      "route": "KT003",
      "bound_type": 1,
      "SEQUENCE": 13,
      "station_code": "KT003",
      "lat": "1.92730600",
      "lng": "104.10721000"
    },
    {
      "id": 2791,
      "name": "Kampung Tanjung Lembu",
      "route": "KT003",
      "bound_type": 1,
      "SEQUENCE": 14,
      "station_code": "KT003",
      "lat": "1.91895100",
      "lng": "104.10489100"
    },
    {
      "id": 2792,
      "name": "Pantai Teluk Mahkota (Jason Bay)",
      "route": "KT003",
      "bound_type": 1,
      "SEQUENCE": 15,
      "station_code": "KT003",
      "lat": "1.89864900",
      "lng": "104.10362600"
    }
  ],
  "LB001_0": [
    {
      "id": 688,
      "name": "SMK LABIS, JALAN MUAR",
      "route": "LB001",
      "bound_type": 0,
      "SEQUENCE": 5,
      "station_code": "LB001",
      "lat": "2.37449393",
      "lng": "103.01478680",
      "intersections": [
        {
          "withRoute": "LB001",
          "stopId": 704,
          "distance": 11.8
        }
      ]
    },
    {
      "id": 687,
      "name": "SEK AGAMA LABIS, JALAN MUAR",
      "route": "LB001",
      "bound_type": 0,
      "SEQUENCE": 6,
      "station_code": "LB001",
      "lat": "2.37604653",
      "lng": "103.01591380",
      "intersections": [
        {
          "withRoute": "LB001",
          "stopId": 686,
          "distance": 193.6
        },
        {
          "withRoute": "LB001",
          "stopId": 704,
          "distance": 201.8
        }
      ]
    },
    {
      "id": 685,
      "name": "SK SRI LABIS, JALAN MUAR",
      "route": "LB001",
      "bound_type": 0,
      "SEQUENCE": 7,
      "station_code": "LB001",
      "lat": "2.38064999",
      "lng": "103.01871840"
    },
    {
      "id": 684,
      "name": "TAMAN ORKID BARU",
      "route": "LB001",
      "bound_type": 0,
      "SEQUENCE": 8,
      "station_code": "LB001",
      "lat": "2.39615000",
      "lng": "103.01895000",
      "intersections": [
        {
          "withRoute": "LB001A",
          "stopId": 2332,
          "distance": 0
        }
      ]
    },
    {
      "id": 708,
      "name": "SMK Kamarul Ariffin",
      "route": "LB001",
      "bound_type": 0,
      "SEQUENCE": 9,
      "station_code": "LB001",
      "lat": "2.39901792",
      "lng": "103.02948200",
      "intersections": [
        {
          "withRoute": "LB001A",
          "stopId": 2333,
          "distance": 0
        },
        {
          "withRoute": "LB001A",
          "stopId": 2335,
          "distance": 61.3
        }
      ]
    },
    {
      "id": 709,
      "name": "Opp SMK Kamarul Ariffin",
      "route": "LB001",
      "bound_type": 0,
      "SEQUENCE": 10,
      "station_code": "LB001",
      "lat": "2.39940351",
      "lng": "103.02994620",
      "intersections": [
        {
          "withRoute": "LB001A",
          "stopId": 2333,
          "distance": 61.3
        },
        {
          "withRoute": "LB001A",
          "stopId": 2335,
          "distance": 0
        }
      ]
    }
  ],
  "LB001_1": [
    {
      "id": 703,
      "name": "Terminal Bas Dan Teksi Labis",
      "route": "LB001",
      "bound_type": 1,
      "SEQUENCE": 1,
      "station_code": "LB001, LB002",
      "lat": "2.38510761",
      "lng": "103.02196190",
      "intersections": [
        {
          "withRoute": "LB001A",
          "stopId": 2331,
          "distance": 0
        },
        {
          "withRoute": "LB003",
          "stopId": 1136,
          "distance": 0
        }
      ]
    },
    {
      "id": 686,
      "name": "PERTUBUHAN PELADANG KAWASAN LABIS",
      "route": "LB001",
      "bound_type": 1,
      "SEQUENCE": 2,
      "station_code": "LB001",
      "lat": "2.37648061",
      "lng": "103.01637360",
      "intersections": [
        {
          "withRoute": "LB001",
          "stopId": 687,
          "distance": 193.6
        }
      ]
    },
    {
      "id": 704,
      "name": "Taman Lagenda,Jalan Muar - Labis",
      "route": "LB001",
      "bound_type": 1,
      "SEQUENCE": 3,
      "station_code": "LB001",
      "lat": "2.37445987",
      "lng": "103.01500640",
      "intersections": [
        {
          "withRoute": "LB001",
          "stopId": 688,
          "distance": 11.8
        },
        {
          "withRoute": "LB001",
          "stopId": 687,
          "distance": 201.8
        }
      ]
    },
    {
      "id": 689,
      "name": "PERUMAHAN AWAM JALAN MUAR",
      "route": "LB001",
      "bound_type": 1,
      "SEQUENCE": 4,
      "station_code": "LB001",
      "lat": "2.35569997",
      "lng": "102.99703390"
    }
  ],
  "LB001A_2": [
    {
      "id": 2331,
      "name": "Terminal Bas Dan Teksi Labis",
      "route": "LB001A",
      "bound_type": 2,
      "SEQUENCE": 1,
      "station_code": null,
      "lat": "2.38510761",
      "lng": "103.02196190",
      "intersections": [
        {
          "withRoute": "LB001",
          "stopId": 703,
          "distance": 0
        },
        {
          "withRoute": "LB003",
          "stopId": 1136,
          "distance": 0
        }
      ]
    },
    {
      "id": 2332,
      "name": "TAMAN ORKID BARU",
      "route": "LB001A",
      "bound_type": 2,
      "SEQUENCE": 2,
      "station_code": null,
      "lat": "2.39615000",
      "lng": "103.01895000",
      "intersections": [
        {
          "withRoute": "LB001",
          "stopId": 684,
          "distance": 0
        }
      ]
    },
    {
      "id": 2333,
      "name": "SMK Kamarul Ariffin",
      "route": "LB001A",
      "bound_type": 2,
      "SEQUENCE": 3,
      "station_code": null,
      "lat": "2.39901792",
      "lng": "103.02948200",
      "intersections": [
        {
          "withRoute": "LB001",
          "stopId": 708,
          "distance": 0
        },
        {
          "withRoute": "LB001",
          "stopId": 709,
          "distance": 61.3
        }
      ]
    },
    {
      "id": 2334,
      "name": "PERSIMPANGAN JALAN PENGHULU HARUN",
      "route": "LB001A",
      "bound_type": 2,
      "SEQUENCE": 4,
      "station_code": null,
      "lat": "2.46843562",
      "lng": "103.05257310"
    },
    {
      "id": 2335,
      "name": "Opp SMK Kamarul Ariffin",
      "route": "LB001A",
      "bound_type": 2,
      "SEQUENCE": 5,
      "station_code": null,
      "lat": "2.39940351",
      "lng": "103.02994620",
      "intersections": [
        {
          "withRoute": "LB001",
          "stopId": 708,
          "distance": 61.3
        },
        {
          "withRoute": "LB001",
          "stopId": 709,
          "distance": 0
        }
      ]
    }
  ],
  "LB003_0": [
    {
      "id": 2771,
      "name": "Persimpangan Bekok (To Chaah)",
      "route": "LB003",
      "bound_type": 0,
      "SEQUENCE": 12,
      "station_code": null,
      "lat": "2.27978300",
      "lng": "103.03901600",
      "intersections": [
        {
          "withRoute": "LB003",
          "stopId": 680,
          "distance": 130.5
        }
      ]
    },
    {
      "id": 681,
      "name": "Taman Damai Jaya 2 ",
      "route": "LB003",
      "bound_type": 0,
      "SEQUENCE": 13,
      "station_code": "LB002",
      "lat": "2.24355000",
      "lng": "103.04019500"
    },
    {
      "id": 2326,
      "name": "Kampung Kangkar 1",
      "route": "LB003",
      "bound_type": 0,
      "SEQUENCE": 14,
      "station_code": null,
      "lat": "2.23623800",
      "lng": "103.04029700",
      "intersections": [
        {
          "withRoute": "LB003",
          "stopId": 2652,
          "distance": 154.6
        }
      ]
    },
    {
      "id": 2329,
      "name": "Taman Sri Chaah (tiang 2)",
      "route": "LB003",
      "bound_type": 0,
      "SEQUENCE": 15,
      "station_code": null,
      "lat": "2.24375400",
      "lng": "103.03998000"
    },
    {
      "id": 705,
      "name": "Kampung Jawa Baru",
      "route": "LB003",
      "bound_type": 0,
      "SEQUENCE": 16,
      "station_code": "LB002",
      "lat": "2.25006400",
      "lng": "103.04011100"
    },
    {
      "id": 702,
      "name": "Kompleks Penghulu  Mukim Chaah",
      "route": "LB003",
      "bound_type": 0,
      "SEQUENCE": 17,
      "station_code": "LB002",
      "lat": "2.25840000",
      "lng": "103.04030300"
    },
    {
      "id": 2772,
      "name": "Persimpangan Bekok (To Bekok) (Return)",
      "route": "LB003",
      "bound_type": 0,
      "SEQUENCE": 18,
      "station_code": null,
      "lat": "2.28037900",
      "lng": "103.03957800",
      "intersections": [
        {
          "withRoute": "LB003",
          "stopId": 680,
          "distance": -0.2
        }
      ]
    },
    {
      "id": 696,
      "name": "Kampung Melayu Baru Bekok (Return)",
      "route": "LB003",
      "bound_type": 0,
      "SEQUENCE": 19,
      "station_code": "LB002",
      "lat": "2.29665000",
      "lng": "103.12517900",
      "intersections": [
        {
          "withRoute": "LB003",
          "stopId": 683,
          "distance": 1.1
        }
      ]
    },
    {
      "id": 693,
      "name": "Sekolah Menengah Kebangsaan Bekok ( Return)",
      "route": "LB003",
      "bound_type": 0,
      "SEQUENCE": 20,
      "station_code": "LB002",
      "lat": "2.29540326",
      "lng": "103.12211370",
      "intersections": [
        {
          "withRoute": "LB003",
          "stopId": 707,
          "distance": 0
        }
      ]
    },
    {
      "id": 2773,
      "name": "Asrama SMK Bekok (Return)",
      "route": "LB003",
      "bound_type": 0,
      "SEQUENCE": 21,
      "station_code": null,
      "lat": "2.29458500",
      "lng": "103.11961400",
      "intersections": [
        {
          "withRoute": "LB003",
          "stopId": 706,
          "distance": -0.1
        }
      ]
    },
    {
      "id": 2774,
      "name": "Persimpangan Bekok ke Labis",
      "route": "LB003",
      "bound_type": 0,
      "SEQUENCE": 22,
      "station_code": null,
      "lat": "2.28081900",
      "lng": "103.03886100",
      "intersections": [
        {
          "withRoute": "LB003",
          "stopId": 680,
          "distance": 109.4
        }
      ]
    },
    {
      "id": 2775,
      "name": "Persimpangan Moakil ke labis",
      "route": "LB003",
      "bound_type": 0,
      "SEQUENCE": 23,
      "station_code": null,
      "lat": "2.31647100",
      "lng": "103.04189300",
      "intersections": [
        {
          "withRoute": "LB003",
          "stopId": 700,
          "distance": 96.9
        }
      ]
    },
    {
      "id": 2776,
      "name": "Kampung Usaha Jaya (Ke Labis)",
      "route": "LB003",
      "bound_type": 0,
      "SEQUENCE": 24,
      "station_code": null,
      "lat": "2.33887400",
      "lng": "103.04314200",
      "intersections": [
        {
          "withRoute": "LB003",
          "stopId": 701,
          "distance": 63.9
        }
      ]
    },
    {
      "id": 2777,
      "name": "Sungai Karas (Ke Labis)",
      "route": "LB003",
      "bound_type": 0,
      "SEQUENCE": 25,
      "station_code": null,
      "lat": "2.35546000",
      "lng": "103.03626600",
      "intersections": [
        {
          "withRoute": "LB003",
          "stopId": 695,
          "distance": 27.7
        }
      ]
    },
    {
      "id": 2778,
      "name": "Taman Suria (Ke Labis)",
      "route": "LB003",
      "bound_type": 0,
      "SEQUENCE": 26,
      "station_code": null,
      "lat": "2.37399400",
      "lng": "103.03127200",
      "intersections": [
        {
          "withRoute": "LB003",
          "stopId": 692,
          "distance": 205.1
        }
      ]
    }
  ],
  "LB003_1": [
    {
      "id": 1136,
      "name": "Terminal Bas Dan Teksi Labis",
      "route": "LB003",
      "bound_type": 1,
      "SEQUENCE": 1,
      "station_code": "LB001, LB002",
      "lat": "2.38510761",
      "lng": "103.02196190",
      "intersections": [
        {
          "withRoute": "LB001",
          "stopId": 703,
          "distance": 0
        },
        {
          "withRoute": "LB001A",
          "stopId": 2331,
          "distance": 0
        }
      ]
    },
    {
      "id": 2652,
      "name": "SMK Seri Bali ",
      "route": "LB003",
      "bound_type": 1,
      "SEQUENCE": 2,
      "station_code": null,
      "lat": "2.23483992",
      "lng": "103.04024831",
      "intersections": [
        {
          "withRoute": "LB003",
          "stopId": 2326,
          "distance": 154.6
        }
      ]
    },
    {
      "id": 691,
      "name": "Pejabat Pos Labis",
      "route": "LB003",
      "bound_type": 1,
      "SEQUENCE": 2,
      "station_code": "LB002",
      "lat": "2.38159390",
      "lng": "103.02047020"
    },
    {
      "id": 690,
      "name": "SK LABIS",
      "route": "LB003",
      "bound_type": 1,
      "SEQUENCE": 3,
      "station_code": "LB002",
      "lat": "2.38058118",
      "lng": "103.02181850"
    },
    {
      "id": 692,
      "name": "TAMAN SURIA",
      "route": "LB003",
      "bound_type": 1,
      "SEQUENCE": 4,
      "station_code": "LB002",
      "lat": "2.37308672",
      "lng": "103.03208050",
      "intersections": [
        {
          "withRoute": "LB003",
          "stopId": 2778,
          "distance": 205.1
        }
      ]
    },
    {
      "id": 695,
      "name": "SJK (C) KARAS, JALAN LABIS",
      "route": "LB003",
      "bound_type": 1,
      "SEQUENCE": 5,
      "station_code": "LB002",
      "lat": "2.35534484",
      "lng": "103.03657250",
      "intersections": [
        {
          "withRoute": "LB003",
          "stopId": 2777,
          "distance": 27.7
        }
      ]
    },
    {
      "id": 701,
      "name": "KAMPUNG USAHA JAYA (MENGHALA CHAAH)",
      "route": "LB003",
      "bound_type": 1,
      "SEQUENCE": 6,
      "station_code": "LB002",
      "lat": "2.33830132",
      "lng": "103.04335290",
      "intersections": [
        {
          "withRoute": "LB003",
          "stopId": 2776,
          "distance": 63.9
        }
      ]
    },
    {
      "id": 700,
      "name": "Persimpangan Moakil (To Chaah)",
      "route": "LB003",
      "bound_type": 1,
      "SEQUENCE": 7,
      "station_code": "LB002",
      "lat": "2.31609000",
      "lng": "103.04221600",
      "intersections": [
        {
          "withRoute": "LB003",
          "stopId": 2775,
          "distance": 96.9
        }
      ]
    },
    {
      "id": 680,
      "name": "Persimpangan Bekok (To Bekok)",
      "route": "LB003",
      "bound_type": 1,
      "SEQUENCE": 8,
      "station_code": "LB002",
      "lat": "2.28037700",
      "lng": "103.03957600",
      "intersections": [
        {
          "withRoute": "LB003",
          "stopId": 2771,
          "distance": 130.5
        },
        {
          "withRoute": "LB003",
          "stopId": 2772,
          "distance": -0.2
        },
        {
          "withRoute": "LB003",
          "stopId": 2774,
          "distance": 109.4
        }
      ]
    },
    {
      "id": 683,
      "name": " Kampung Melayu Baru Bekok",
      "route": "LB003",
      "bound_type": 1,
      "SEQUENCE": 9,
      "station_code": "LB002",
      "lat": "2.29664000",
      "lng": "103.12517800",
      "intersections": [
        {
          "withRoute": "LB003",
          "stopId": 696,
          "distance": 1.1
        }
      ]
    },
    {
      "id": 707,
      "name": "Sekolah Menengah Kebangsaan Bekok",
      "route": "LB003",
      "bound_type": 1,
      "SEQUENCE": 10,
      "station_code": "LB002",
      "lat": "2.29540325",
      "lng": "103.12211360",
      "intersections": [
        {
          "withRoute": "LB003",
          "stopId": 693,
          "distance": 0
        }
      ]
    },
    {
      "id": 706,
      "name": "Asrama SMK Bekok",
      "route": "LB003",
      "bound_type": 1,
      "SEQUENCE": 11,
      "station_code": "LB002",
      "lat": "2.29458364",
      "lng": "103.11961320",
      "intersections": [
        {
          "withRoute": "LB003",
          "stopId": 2773,
          "distance": -0.1
        }
      ]
    }
  ],
  "ME001_1": [
    {
      "id": 656,
      "name": "Terminal Bas Dan Teksi Bandar Mersing",
      "route": "ME001",
      "bound_type": 1,
      "SEQUENCE": 1,
      "station_code": "ME001, ME002",
      "lat": "2.43091681",
      "lng": "103.83292280",
      "intersections": [
        {
          "withRoute": "ME002",
          "stopId": 1135,
          "distance": 0
        },
        {
          "withRoute": "ME004",
          "stopId": 2653,
          "distance": 0
        }
      ]
    },
    {
      "id": 655,
      "name": "MeTIC",
      "route": "ME001",
      "bound_type": 1,
      "SEQUENCE": 2,
      "station_code": "ME001",
      "lat": "2.43262016",
      "lng": "103.83803810"
    },
    {
      "id": 654,
      "name": "Plaza D'jeti",
      "route": "ME001",
      "bound_type": 1,
      "SEQUENCE": 3,
      "station_code": "ME001",
      "lat": "2.43404602",
      "lng": "103.83946760"
    },
    {
      "id": 653,
      "name": "Hospital Mersing",
      "route": "ME001",
      "bound_type": 1,
      "SEQUENCE": 4,
      "station_code": "ME001",
      "lat": "2.42951819",
      "lng": "103.84513230"
    },
    {
      "id": 657,
      "name": "Kampung Telok Iskandar,Jalan Sekakap",
      "route": "ME001",
      "bound_type": 1,
      "SEQUENCE": 5,
      "station_code": "ME001",
      "lat": "2.41047254",
      "lng": "103.86093780"
    },
    {
      "id": 658,
      "name": "Taman Pantai,Jalan Sri Pantai",
      "route": "ME001",
      "bound_type": 1,
      "SEQUENCE": 6,
      "station_code": "ME001",
      "lat": "2.39390382",
      "lng": "103.86136050"
    },
    {
      "id": 659,
      "name": "Sekolah Kebangsaaan Anjung Batu,Jalan Jemaluang",
      "route": "ME001",
      "bound_type": 1,
      "SEQUENCE": 7,
      "station_code": "ME001",
      "lat": "2.41311503",
      "lng": "103.84479880"
    },
    {
      "id": 660,
      "name": "Taman Wawasan, Mersing",
      "route": "ME001",
      "bound_type": 1,
      "SEQUENCE": 8,
      "station_code": "ME001",
      "lat": "2.41525536",
      "lng": "103.84219060"
    },
    {
      "id": 652,
      "name": "Politeknik Mersing",
      "route": "ME001",
      "bound_type": 1,
      "SEQUENCE": 9,
      "station_code": "ME001",
      "lat": "2.41744000",
      "lng": "103.82971000"
    }
  ],
  "ME002_0": [
    {
      "id": 664,
      "name": "Kampung Air Papan,Jalan Air Papan",
      "route": "ME002",
      "bound_type": 0,
      "SEQUENCE": 8,
      "station_code": "ME002",
      "lat": "2.51433486",
      "lng": "103.83362600"
    },
    {
      "id": 663,
      "name": "Kampung Tenglu Laut,Jalan Makam",
      "route": "ME002",
      "bound_type": 0,
      "SEQUENCE": 9,
      "station_code": "ME002",
      "lat": "2.49332921",
      "lng": "103.81727800"
    },
    {
      "id": 651,
      "name": "Medan Niaga Seri Tanjung",
      "route": "ME002",
      "bound_type": 0,
      "SEQUENCE": 10,
      "station_code": "ME002",
      "lat": "2.43941000",
      "lng": "103.83750000"
    }
  ],
  "ME002_1": [
    {
      "id": 1135,
      "name": "Terminal Bas Dan Teksi Bandar Mersing",
      "route": "ME002",
      "bound_type": 1,
      "SEQUENCE": 1,
      "station_code": "ME001, ME002",
      "lat": "2.43091681",
      "lng": "103.83292280",
      "intersections": [
        {
          "withRoute": "ME001",
          "stopId": 656,
          "distance": 0
        },
        {
          "withRoute": "ME004",
          "stopId": 2653,
          "distance": 0
        }
      ]
    },
    {
      "id": 661,
      "name": "Timotel Hotel,Jalan Endau Mersing",
      "route": "ME002",
      "bound_type": 1,
      "SEQUENCE": 2,
      "station_code": "ME002",
      "lat": "2.43299567",
      "lng": "103.83449490",
      "intersections": [
        {
          "withRoute": "ME004",
          "stopId": 2805,
          "distance": 0
        }
      ]
    },
    {
      "id": 662,
      "name": "Sekolah Rendah Agama Bersepadu Mersing, Jalan Makam",
      "route": "ME002",
      "bound_type": 1,
      "SEQUENCE": 3,
      "station_code": "ME002",
      "lat": "2.44939702",
      "lng": "103.83201850"
    },
    {
      "id": 650,
      "name": "SMK Mersing",
      "route": "ME002",
      "bound_type": 1,
      "SEQUENCE": 4,
      "station_code": "ME002",
      "lat": "2.45407200",
      "lng": "103.83030700"
    },
    {
      "id": 649,
      "name": "Kampung Tenglu Laut",
      "route": "ME002",
      "bound_type": 1,
      "SEQUENCE": 5,
      "station_code": "ME002",
      "lat": "2.48717470",
      "lng": "103.81737910"
    },
    {
      "id": 648,
      "name": "Rumah Komuniti Kampung Air Papan",
      "route": "ME002",
      "bound_type": 1,
      "SEQUENCE": 6,
      "station_code": "ME002",
      "lat": "2.50735149",
      "lng": "103.82731390"
    },
    {
      "id": 665,
      "name": "Pantai Air Papan",
      "route": "ME002",
      "bound_type": 1,
      "SEQUENCE": 7,
      "station_code": "ME002",
      "lat": "2.51616020",
      "lng": "103.83433170"
    }
  ],
  "ME003_0": [
    {
      "id": 677,
      "name": "SJK ( C ) Chiao Ching,Jalan Haji Arrifin",
      "route": "ME003",
      "bound_type": 0,
      "SEQUENCE": 12,
      "station_code": "ME003",
      "lat": "2.65037149",
      "lng": "103.62599370"
    },
    {
      "id": 2383,
      "name": "Taman Gemilang,Jalan Penyabong - Endau",
      "route": "ME003",
      "bound_type": 0,
      "SEQUENCE": 13,
      "station_code": null,
      "lat": "2.64715900",
      "lng": "103.63757600"
    },
    {
      "id": 674,
      "name": "Kampung Belukar Juling,Jalan Penyabong - Endau",
      "route": "ME003",
      "bound_type": 0,
      "SEQUENCE": 14,
      "station_code": "ME003",
      "lat": "2.64574793",
      "lng": "103.65674430"
    },
    {
      "id": 671,
      "name": "SK Teriang,Jalan Penyabong - Endau",
      "route": "ME003",
      "bound_type": 0,
      "SEQUENCE": 15,
      "station_code": "ME003",
      "lat": "2.62791945",
      "lng": "103.72003650",
      "intersections": [
        {
          "withRoute": "ME003",
          "stopId": 670,
          "distance": 162
        }
      ]
    },
    {
      "id": 647,
      "name": "Sekolah Agama Simpang Penyabong",
      "route": "ME003",
      "bound_type": 0,
      "SEQUENCE": 16,
      "station_code": "ME003",
      "lat": "2.62493707",
      "lng": "103.74533570"
    }
  ],
  "ME003_1": [
    {
      "id": 2378,
      "name": "Jeti Penyabong",
      "route": "ME003",
      "bound_type": 1,
      "SEQUENCE": 1,
      "station_code": null,
      "lat": "2.64797200",
      "lng": "103.74906000"
    },
    {
      "id": 666,
      "name": "Simpang Tanjung Resang,Jalan Penyabong - Endau",
      "route": "ME003",
      "bound_type": 1,
      "SEQUENCE": 2,
      "station_code": "ME003",
      "lat": "2.63779649",
      "lng": "103.75181760"
    },
    {
      "id": 667,
      "name": "Kampung Baru Tanjung Penyabong,Jalan Penyabong - Endau",
      "route": "ME003",
      "bound_type": 1,
      "SEQUENCE": 3,
      "station_code": "ME003",
      "lat": "2.62768115",
      "lng": "103.74732440"
    },
    {
      "id": 668,
      "name": "Jalan Teriang Tengah Kampung Sungai Bebuta,Jalan Penyabong - Endau",
      "route": "ME003",
      "bound_type": 1,
      "SEQUENCE": 4,
      "station_code": "ME003",
      "lat": "2.62341861",
      "lng": "103.72987750"
    },
    {
      "id": 669,
      "name": "Kampung Sungai Bebuta,Jalan Penyabong - Endau",
      "route": "ME003",
      "bound_type": 1,
      "SEQUENCE": 5,
      "station_code": "ME003",
      "lat": "2.62442071",
      "lng": "103.72768350"
    },
    {
      "id": 670,
      "name": "Klinik Desa Kampung Teriang,Jalan Penyabong - Endau",
      "route": "ME003",
      "bound_type": 1,
      "SEQUENCE": 6,
      "station_code": "ME003",
      "lat": "2.62721349",
      "lng": "103.72131930",
      "intersections": [
        {
          "withRoute": "ME003",
          "stopId": 671,
          "distance": 162
        }
      ]
    },
    {
      "id": 672,
      "name": "Masjid Kampung Sungai Mengkuang,Jalan Penyabong - Endau",
      "route": "ME003",
      "bound_type": 1,
      "SEQUENCE": 7,
      "station_code": "ME003",
      "lat": "2.64303975",
      "lng": "103.68787440"
    },
    {
      "id": 673,
      "name": "Kampung Sungai Mengkuang,Jalan Penyabong - Endau",
      "route": "ME003",
      "bound_type": 1,
      "SEQUENCE": 8,
      "station_code": "ME003",
      "lat": "2.64297191",
      "lng": "103.68198450"
    },
    {
      "id": 675,
      "name": "SMK Ungku Husin,Jalan Penyabong - Endau",
      "route": "ME003",
      "bound_type": 1,
      "SEQUENCE": 9,
      "station_code": "ME003",
      "lat": "2.64853717",
      "lng": "103.63161150"
    },
    {
      "id": 679,
      "name": "Sekolah Kebangsaan Bandar Endau,Jalan Endau - Mersing",
      "route": "ME003",
      "bound_type": 1,
      "SEQUENCE": 10,
      "station_code": "ME003",
      "lat": "2.65089754",
      "lng": "103.62407320",
      "intersections": [
        {
          "withRoute": "ME004",
          "stopId": 2817,
          "distance": 0
        }
      ]
    },
    {
      "id": 678,
      "name": "Terminal Bus Endau",
      "route": "ME003",
      "bound_type": 1,
      "SEQUENCE": 11,
      "station_code": "ME003",
      "lat": "2.65360543",
      "lng": "103.61875360",
      "intersections": [
        {
          "withRoute": "ME004",
          "stopId": 2818,
          "distance": 0
        }
      ]
    }
  ],
  "ME004_0": [
    {
      "id": 2819,
      "name": "Kg. Ladang Batu ",
      "route": "ME004",
      "bound_type": 0,
      "SEQUENCE": 15,
      "station_code": "ME004",
      "lat": "2.64102000",
      "lng": "103.63059600"
    },
    {
      "id": 2820,
      "name": "Kampung Londang Batu",
      "route": "ME004",
      "bound_type": 0,
      "SEQUENCE": 16,
      "station_code": "ME004",
      "lat": "2.63959700",
      "lng": "103.63142300"
    },
    {
      "id": 2821,
      "name": "Kampung Hubong",
      "route": "ME004",
      "bound_type": 0,
      "SEQUENCE": 17,
      "station_code": "ME004",
      "lat": "2.63560900",
      "lng": "103.64102600",
      "intersections": [
        {
          "withRoute": "ME004",
          "stopId": 2816,
          "distance": 151
        }
      ]
    },
    {
      "id": 2822,
      "name": "Felda Endau (Ke Mersing)",
      "route": "ME004",
      "bound_type": 0,
      "SEQUENCE": 18,
      "station_code": "ME004",
      "lat": "2.62140100",
      "lng": "103.67839300",
      "intersections": [
        {
          "withRoute": "ME004",
          "stopId": 2815,
          "distance": 45.9
        }
      ]
    },
    {
      "id": 2823,
      "name": "Kampung Tenglu Batu Enam (Ke Mersing)",
      "route": "ME004",
      "bound_type": 0,
      "SEQUENCE": 19,
      "station_code": "ME004",
      "lat": "2.51507800",
      "lng": "103.79141200"
    },
    {
      "id": 2824,
      "name": "Kampung Tenglu (Ke Mersing)",
      "route": "ME004",
      "bound_type": 0,
      "SEQUENCE": 20,
      "station_code": "ME004",
      "lat": "2.49532100",
      "lng": "103.80133000",
      "intersections": [
        {
          "withRoute": "ME004",
          "stopId": 2813,
          "distance": 96.3
        }
      ]
    },
    {
      "id": 2825,
      "name": "Kampung Tenglu Kecil (Ke Mersing)",
      "route": "ME004",
      "bound_type": 0,
      "SEQUENCE": 21,
      "station_code": "ME004",
      "lat": "2.48173200",
      "lng": "103.80820900",
      "intersections": [
        {
          "withRoute": "ME004",
          "stopId": 2811,
          "distance": 7.7
        }
      ]
    },
    {
      "id": 2826,
      "name": "Kampung Sawah Dato",
      "route": "ME004",
      "bound_type": 0,
      "SEQUENCE": 22,
      "station_code": "ME004",
      "lat": "2.46596100",
      "lng": "103.81834300"
    },
    {
      "id": 2827,
      "name": "SMK Mersing (Ke Mersing)",
      "route": "ME004",
      "bound_type": 0,
      "SEQUENCE": 23,
      "station_code": "ME004",
      "lat": "2.45375100",
      "lng": "103.82808900",
      "intersections": [
        {
          "withRoute": "ME004",
          "stopId": 2810,
          "distance": 28.5
        }
      ]
    },
    {
      "id": 2828,
      "name": "Masjid Jamek Kg. Sri Lalang",
      "route": "ME004",
      "bound_type": 0,
      "SEQUENCE": 24,
      "station_code": null,
      "lat": "2.44279000",
      "lng": "103.83302600"
    }
  ],
  "ME004_1": [
    {
      "id": 2653,
      "name": "Terminal Bas Dan Teksi Bandar Mersing",
      "route": "ME004",
      "bound_type": 1,
      "SEQUENCE": 1,
      "station_code": "ME004",
      "lat": "2.43091681",
      "lng": "103.83292280",
      "intersections": [
        {
          "withRoute": "ME001",
          "stopId": 656,
          "distance": 0
        },
        {
          "withRoute": "ME002",
          "stopId": 1135,
          "distance": 0
        }
      ]
    },
    {
      "id": 2805,
      "name": "Timotel Hotel",
      "route": "ME004",
      "bound_type": 1,
      "SEQUENCE": 2,
      "station_code": "ME004",
      "lat": "2.43299600",
      "lng": "103.83449500",
      "intersections": [
        {
          "withRoute": "ME002",
          "stopId": 661,
          "distance": 0
        }
      ]
    },
    {
      "id": 2807,
      "name": "Taman Pantai Timur",
      "route": "ME004",
      "bound_type": 1,
      "SEQUENCE": 3,
      "station_code": "ME004",
      "lat": "2.43629700",
      "lng": "103.83384000"
    },
    {
      "id": 2808,
      "name": "Kg. Seri Lalang",
      "route": "ME004",
      "bound_type": 1,
      "SEQUENCE": 4,
      "station_code": "ME004",
      "lat": "2.44725200",
      "lng": "103.83133300"
    },
    {
      "id": 2809,
      "name": "Sekolah Rendah Agama Bersepadu Mersing",
      "route": "ME004",
      "bound_type": 1,
      "SEQUENCE": 5,
      "station_code": "ME004",
      "lat": "2.44960800",
      "lng": "103.83028400"
    },
    {
      "id": 2810,
      "name": "SMK Mersing",
      "route": "ME004",
      "bound_type": 1,
      "SEQUENCE": 6,
      "station_code": "ME004",
      "lat": "2.45347400",
      "lng": "103.82802700",
      "intersections": [
        {
          "withRoute": "ME004",
          "stopId": 2827,
          "distance": 28.5
        }
      ]
    },
    {
      "id": 2811,
      "name": "Kampung Tenglu Kecil ",
      "route": "ME004",
      "bound_type": 1,
      "SEQUENCE": 7,
      "station_code": "ME004",
      "lat": "2.48170900",
      "lng": "103.80797000",
      "intersections": [
        {
          "withRoute": "ME004",
          "stopId": 2825,
          "distance": 7.7
        }
      ]
    },
    {
      "id": 2812,
      "name": "Kampung Batu Empat Setengah",
      "route": "ME004",
      "bound_type": 1,
      "SEQUENCE": 8,
      "station_code": "ME004",
      "lat": "2.48797300",
      "lng": "103.80489000"
    },
    {
      "id": 2813,
      "name": "Kampung Tenglu",
      "route": "ME004",
      "bound_type": 1,
      "SEQUENCE": 9,
      "station_code": "ME004",
      "lat": "2.49582700",
      "lng": "103.80076500",
      "intersections": [
        {
          "withRoute": "ME004",
          "stopId": 2824,
          "distance": 96.3
        }
      ]
    },
    {
      "id": 2814,
      "name": "Kampung Tenglu Batu Enam",
      "route": "ME004",
      "bound_type": 1,
      "SEQUENCE": 10,
      "station_code": "ME004",
      "lat": "2.51000400",
      "lng": "103.79374800"
    },
    {
      "id": 2815,
      "name": "Felda Endau",
      "route": "ME004",
      "bound_type": 1,
      "SEQUENCE": 11,
      "station_code": "ME004",
      "lat": "2.62151200",
      "lng": "103.67793800",
      "intersections": [
        {
          "withRoute": "ME004",
          "stopId": 2822,
          "distance": 45.9
        }
      ]
    },
    {
      "id": 2816,
      "name": "Sekolah Kebangsaan Pusat Air Tawar",
      "route": "ME004",
      "bound_type": 1,
      "SEQUENCE": 12,
      "station_code": "ME004",
      "lat": "2.63515100",
      "lng": "103.64222500",
      "intersections": [
        {
          "withRoute": "ME004",
          "stopId": 2821,
          "distance": 151
        }
      ]
    },
    {
      "id": 2817,
      "name": "SK Bandar Endau",
      "route": "ME004",
      "bound_type": 1,
      "SEQUENCE": 13,
      "station_code": "ME004",
      "lat": "2.65089800",
      "lng": "103.62407300",
      "intersections": [
        {
          "withRoute": "ME003",
          "stopId": 679,
          "distance": 0
        }
      ]
    },
    {
      "id": 2818,
      "name": "Terminal Bus Endau",
      "route": "ME004",
      "bound_type": 1,
      "SEQUENCE": 14,
      "station_code": "ME004",
      "lat": "2.65360500",
      "lng": "103.61875400",
      "intersections": [
        {
          "withRoute": "ME003",
          "stopId": 678,
          "distance": 0
        }
      ]
    }
  ],
  "MU001_0": [
    {
      "id": 755,
      "name": "Pusat Perniagaan Kampung Tengah, Jalan Sungai Abong (Bus Stop)",
      "route": "MU001",
      "bound_type": 0,
      "SEQUENCE": 8,
      "station_code": "MU001, MU005",
      "lat": "2.06098100",
      "lng": "102.59915900",
      "intersections": [
        {
          "withRoute": "MU005",
          "stopId": 1139,
          "distance": 0
        }
      ]
    },
    {
      "id": 753,
      "name": "SK Bakri Bt. 2",
      "route": "MU001",
      "bound_type": 0,
      "SEQUENCE": 9,
      "station_code": "MU001",
      "lat": "2.04940000",
      "lng": "102.59410000"
    },
    {
      "id": 756,
      "name": "Tmn. Maharani, Jln. Bakri(Bus Stop)",
      "route": "MU001",
      "bound_type": 0,
      "SEQUENCE": 10,
      "station_code": "MU001, MU003",
      "lat": "2.04777200",
      "lng": "102.59078000",
      "intersections": [
        {
          "withRoute": "MU003",
          "stopId": 2483,
          "distance": 0
        }
      ]
    },
    {
      "id": 1168,
      "name": "Hospital Pakar Sultanah Fatimah",
      "route": "MU001",
      "bound_type": 0,
      "SEQUENCE": 11,
      "station_code": "MU001, MU004, MU005",
      "lat": "2.05673126",
      "lng": "102.57423860",
      "intersections": [
        {
          "withRoute": "MU004",
          "stopId": 11,
          "distance": 0
        },
        {
          "withRoute": "MU005",
          "stopId": 1167,
          "distance": 0
        }
      ]
    }
  ],
  "MU001_1": [
    {
      "id": 752,
      "name": "Terminal Maharani",
      "route": "MU001",
      "bound_type": 1,
      "SEQUENCE": 1,
      "station_code": "MU001",
      "lat": "2.04669694",
      "lng": "102.56485480",
      "intersections": [
        {
          "withRoute": "MU002",
          "stopId": 2390,
          "distance": 0
        },
        {
          "withRoute": "MU003",
          "stopId": 1074,
          "distance": 0
        },
        {
          "withRoute": "MU004",
          "stopId": 2424,
          "distance": 0
        },
        {
          "withRoute": "MU005",
          "stopId": 2427,
          "distance": 0
        },
        {
          "withRoute": "TK002",
          "stopId": 2507,
          "distance": 0
        }
      ]
    },
    {
      "id": 1058,
      "name": "Terminal Feri Bandar Maharani Bandar Diraja",
      "route": "MU001",
      "bound_type": 1,
      "SEQUENCE": 2,
      "station_code": "MU001, MU002, MU003, MU004, MU005",
      "lat": "2.04804211",
      "lng": "102.56686930",
      "intersections": [
        {
          "withRoute": "MU002",
          "stopId": 1178,
          "distance": 0
        },
        {
          "withRoute": "MU003",
          "stopId": 2398,
          "distance": 0
        },
        {
          "withRoute": "MU004",
          "stopId": 2407,
          "distance": 0
        },
        {
          "withRoute": "MU005",
          "stopId": 2428,
          "distance": 0
        },
        {
          "withRoute": "TK002",
          "stopId": 2508,
          "distance": 0
        }
      ]
    },
    {
      "id": 749,
      "name": "SK Parit Setongkat",
      "route": "MU001",
      "bound_type": 1,
      "SEQUENCE": 3,
      "station_code": "MU001",
      "lat": "2.06670000",
      "lng": "102.58250000"
    },
    {
      "id": 750,
      "name": "SMK Sungai Abong",
      "route": "MU001",
      "bound_type": 1,
      "SEQUENCE": 4,
      "station_code": "MU001",
      "lat": "2.06530000",
      "lng": "102.59600000"
    },
    {
      "id": 2482,
      "name": "Tmn Sg. Abong Mulia",
      "route": "MU001",
      "bound_type": 1,
      "SEQUENCE": 5,
      "station_code": null,
      "lat": "2.06150000",
      "lng": "102.60540000"
    },
    {
      "id": 802,
      "name": "Taman Sri Terap (Tiang 2)",
      "route": "MU001",
      "bound_type": 1,
      "SEQUENCE": 6,
      "station_code": "MU001, MU005",
      "lat": "2.06793800",
      "lng": "102.60447000",
      "intersections": [
        {
          "withRoute": "MU005",
          "stopId": 1050,
          "distance": 0
        }
      ]
    },
    {
      "id": 751,
      "name": "SK Sungai Abong",
      "route": "MU001",
      "bound_type": 1,
      "SEQUENCE": 7,
      "station_code": "MU001, MU005",
      "lat": "2.06530000",
      "lng": "102.60100000",
      "intersections": [
        {
          "withRoute": "MU005",
          "stopId": 1138,
          "distance": 0
        }
      ]
    }
  ],
  "MU002_1": [
    {
      "id": 2390,
      "name": "Terminal Maharani",
      "route": "MU002",
      "bound_type": 1,
      "SEQUENCE": 1,
      "station_code": null,
      "lat": "2.04669694",
      "lng": "102.56485480",
      "intersections": [
        {
          "withRoute": "MU001",
          "stopId": 752,
          "distance": 0
        },
        {
          "withRoute": "MU003",
          "stopId": 1074,
          "distance": 0
        },
        {
          "withRoute": "MU004",
          "stopId": 2424,
          "distance": 0
        },
        {
          "withRoute": "MU005",
          "stopId": 2427,
          "distance": 0
        },
        {
          "withRoute": "TK002",
          "stopId": 2507,
          "distance": 0
        }
      ]
    },
    {
      "id": 1178,
      "name": "Terminal Feri Bandar Maharani Bandar Diraja",
      "route": "MU002",
      "bound_type": 1,
      "SEQUENCE": 2,
      "station_code": "MU001, MU002, MU003, MU004, MU005",
      "lat": "2.04804211",
      "lng": "102.56686930",
      "intersections": [
        {
          "withRoute": "MU001",
          "stopId": 1058,
          "distance": 0
        },
        {
          "withRoute": "MU003",
          "stopId": 2398,
          "distance": 0
        },
        {
          "withRoute": "MU004",
          "stopId": 2407,
          "distance": 0
        },
        {
          "withRoute": "MU005",
          "stopId": 2428,
          "distance": 0
        },
        {
          "withRoute": "TK002",
          "stopId": 2508,
          "distance": 0
        }
      ]
    },
    {
      "id": 846,
      "name": "Dewan Jubli Intan Sultan Ibrahim",
      "route": "MU002",
      "bound_type": 1,
      "SEQUENCE": 3,
      "station_code": "MU002, MU003",
      "lat": "2.04256297",
      "lng": "102.56757360"
    },
    {
      "id": 848,
      "name": "Taman Laksamana,JalanTemenggong Ahmad",
      "route": "MU002",
      "bound_type": 1,
      "SEQUENCE": 4,
      "station_code": "MU002",
      "lat": "2.03103884",
      "lng": "102.57989090"
    },
    {
      "id": 766,
      "name": "Taman Sri Temenggong (Bus Stop)",
      "route": "MU002",
      "bound_type": 1,
      "SEQUENCE": 5,
      "station_code": "MU002",
      "lat": "2.02943800",
      "lng": "102.58195000"
    },
    {
      "id": 849,
      "name": "Taman Amansari",
      "route": "MU002",
      "bound_type": 1,
      "SEQUENCE": 6,
      "station_code": "MU002",
      "lat": "2.02237348",
      "lng": "102.59009510"
    },
    {
      "id": 2394,
      "name": "Taman Aman Sari II, Jln Sari",
      "route": "MU002",
      "bound_type": 1,
      "SEQUENCE": 7,
      "station_code": null,
      "lat": "2.02055000",
      "lng": "102.59230200"
    },
    {
      "id": 759,
      "name": "SMK Tengku Mahkota",
      "route": "MU002",
      "bound_type": 1,
      "SEQUENCE": 8,
      "station_code": "MU002",
      "lat": "2.01130000",
      "lng": "102.59920000"
    },
    {
      "id": 2397,
      "name": "Taman Parit Bakar Tengah",
      "route": "MU002",
      "bound_type": 1,
      "SEQUENCE": 9,
      "station_code": null,
      "lat": "2.00022800",
      "lng": "102.60182100"
    },
    {
      "id": 763,
      "name": "Lorong Haji Kalong, Kg. Pt. Besar (Bus Stop)",
      "route": "MU002",
      "bound_type": 1,
      "SEQUENCE": 10,
      "station_code": "MU002",
      "lat": "2.00790900",
      "lng": "102.59051200"
    },
    {
      "id": 764,
      "name": "Taman Impian Murni (Bus Stop)",
      "route": "MU002",
      "bound_type": 1,
      "SEQUENCE": 11,
      "station_code": "MU002",
      "lat": "2.01403400",
      "lng": "102.58633800"
    },
    {
      "id": 851,
      "name": "Jalan Murni 4 Taman Impian Murni",
      "route": "MU002",
      "bound_type": 1,
      "SEQUENCE": 12,
      "station_code": "MU002",
      "lat": "2.01523578",
      "lng": "102.58511210"
    },
    {
      "id": 765,
      "name": "Kampung Parit Peropok,Jalan Abdul Rahman",
      "route": "MU002",
      "bound_type": 1,
      "SEQUENCE": 13,
      "station_code": "MU002",
      "lat": "2.02219700",
      "lng": "102.57822800"
    },
    {
      "id": 760,
      "name": "Taman Sri Cempaka",
      "route": "MU002",
      "bound_type": 1,
      "SEQUENCE": 14,
      "station_code": "MU002",
      "lat": "2.02760000",
      "lng": "102.57290000"
    },
    {
      "id": 852,
      "name": "Taman Bahagia,Jalan Abdul Rahman",
      "route": "MU002",
      "bound_type": 1,
      "SEQUENCE": 15,
      "station_code": "MU002",
      "lat": "2.03094985",
      "lng": "102.56903060"
    },
    {
      "id": 761,
      "name": "SMK (P) Sultan Abu Bakar (Jalan Rahman)",
      "route": "MU002",
      "bound_type": 1,
      "SEQUENCE": 16,
      "station_code": "MU002",
      "lat": "2.04060000",
      "lng": "102.55830000"
    },
    {
      "id": 762,
      "name": "Taman Joned Perdana (Jalan Abdul Rahman)",
      "route": "MU002",
      "bound_type": 1,
      "SEQUENCE": 17,
      "station_code": "MU002",
      "lat": "2.03390000",
      "lng": "102.56590000"
    }
  ],
  "MU003_0": [
    {
      "id": 837,
      "name": "Taman Seri Anggerik,Jalan Muar",
      "route": "MU003",
      "bound_type": 0,
      "SEQUENCE": 21,
      "station_code": "MU003",
      "lat": "2.04651873",
      "lng": "102.61335550",
      "intersections": [
        {
          "withRoute": "MU003",
          "stopId": 774,
          "distance": 241.2
        }
      ]
    },
    {
      "id": 834,
      "name": "Taman Seri Kasih,Jalan Bentayan",
      "route": "MU003",
      "bound_type": 0,
      "SEQUENCE": 22,
      "station_code": "MU003",
      "lat": "2.04719780",
      "lng": "102.60249330",
      "intersections": [
        {
          "withRoute": "MU003",
          "stopId": 2399,
          "distance": 212.5
        }
      ]
    },
    {
      "id": 773,
      "name": "Taman Bakawali (Bus Stop)",
      "route": "MU003",
      "bound_type": 0,
      "SEQUENCE": 23,
      "station_code": "MU003",
      "lat": "2.04752200",
      "lng": "102.59659400"
    },
    {
      "id": 2483,
      "name": "Tmn. Maharani, Jln. Bakri(Bus Stop)",
      "route": "MU003",
      "bound_type": 0,
      "SEQUENCE": 24,
      "station_code": null,
      "lat": "2.04777200",
      "lng": "102.59078000",
      "intersections": [
        {
          "withRoute": "MU001",
          "stopId": 756,
          "distance": 0
        }
      ]
    }
  ],
  "MU003_1": [
    {
      "id": 1074,
      "name": "Terminal Maharani",
      "route": "MU003",
      "bound_type": 1,
      "SEQUENCE": 1,
      "station_code": "MU001, MU003",
      "lat": "2.04669694",
      "lng": "102.56485480",
      "intersections": [
        {
          "withRoute": "MU001",
          "stopId": 752,
          "distance": 0
        },
        {
          "withRoute": "MU002",
          "stopId": 2390,
          "distance": 0
        },
        {
          "withRoute": "MU004",
          "stopId": 2424,
          "distance": 0
        },
        {
          "withRoute": "MU005",
          "stopId": 2427,
          "distance": 0
        },
        {
          "withRoute": "TK002",
          "stopId": 2507,
          "distance": 0
        }
      ]
    },
    {
      "id": 2398,
      "name": "Terminal Feri Bandar Maharani Bandar Diraja",
      "route": "MU003",
      "bound_type": 1,
      "SEQUENCE": 2,
      "station_code": null,
      "lat": "2.04804211",
      "lng": "102.56686930",
      "intersections": [
        {
          "withRoute": "MU001",
          "stopId": 1058,
          "distance": 0
        },
        {
          "withRoute": "MU002",
          "stopId": 1178,
          "distance": 0
        },
        {
          "withRoute": "MU004",
          "stopId": 2407,
          "distance": 0
        },
        {
          "withRoute": "MU005",
          "stopId": 2428,
          "distance": 0
        },
        {
          "withRoute": "TK002",
          "stopId": 2508,
          "distance": 0
        }
      ]
    },
    {
      "id": 1140,
      "name": "Pesta, Jalan Bakri",
      "route": "MU003",
      "bound_type": 1,
      "SEQUENCE": 3,
      "station_code": "MU001, MU003",
      "lat": "2.04830000",
      "lng": "102.58490000"
    },
    {
      "id": 2399,
      "name": "Masjid Nur Manir Batu 3",
      "route": "MU003",
      "bound_type": 1,
      "SEQUENCE": 4,
      "station_code": null,
      "lat": "2.04726900",
      "lng": "102.60441200",
      "intersections": [
        {
          "withRoute": "MU003",
          "stopId": 834,
          "distance": 212.5
        }
      ]
    },
    {
      "id": 768,
      "name": "Taman Meranti (Jalan Bentayan)",
      "route": "MU003",
      "bound_type": 1,
      "SEQUENCE": 5,
      "station_code": "MU003",
      "lat": "2.04710000",
      "lng": "102.60820000"
    },
    {
      "id": 774,
      "name": "Sekolah Agama Simpang Jeram (Bus Stop)",
      "route": "MU003",
      "bound_type": 1,
      "SEQUENCE": 6,
      "station_code": "MU003",
      "lat": "2.04792000",
      "lng": "102.61366300",
      "intersections": [
        {
          "withRoute": "MU003",
          "stopId": 837,
          "distance": 241.2
        }
      ]
    },
    {
      "id": 769,
      "name": "Klinik Kesihatan Bakri",
      "route": "MU003",
      "bound_type": 1,
      "SEQUENCE": 7,
      "station_code": "MU003",
      "lat": "2.05180000",
      "lng": "102.64880000"
    },
    {
      "id": 770,
      "name": "Pasar Awam Bukit Bakri (Jalan Tengah)",
      "route": "MU003",
      "bound_type": 1,
      "SEQUENCE": 8,
      "station_code": "MU003",
      "lat": "2.04220000",
      "lng": "102.65670000"
    },
    {
      "id": 771,
      "name": "MRSM Muar (Jalan Muar)",
      "route": "MU003",
      "bound_type": 1,
      "SEQUENCE": 9,
      "station_code": "MU003",
      "lat": "2.04190000",
      "lng": "102.65510000"
    },
    {
      "id": 838,
      "name": "Taman Bakri Indah",
      "route": "MU003",
      "bound_type": 1,
      "SEQUENCE": 10,
      "station_code": "MU003",
      "lat": "2.04214548",
      "lng": "102.65370810"
    },
    {
      "id": 839,
      "name": "Kampung Kenangan Dato Abdul Jaafar,Jalan Muar",
      "route": "MU003",
      "bound_type": 1,
      "SEQUENCE": 11,
      "station_code": "MU003",
      "lat": "2.04249474",
      "lng": "102.65150380"
    },
    {
      "id": 775,
      "name": "Taman Bakri Mulia (Bus Stop)",
      "route": "MU003",
      "bound_type": 1,
      "SEQUENCE": 12,
      "station_code": "MU003",
      "lat": "2.04280300",
      "lng": "102.64972100"
    },
    {
      "id": 757,
      "name": "Sekolah Agama Bakri Batu 6 (Tiada Bus Stop)",
      "route": "MU003",
      "bound_type": 1,
      "SEQUENCE": 13,
      "station_code": "MU003",
      "lat": "2.04311400",
      "lng": "102.64800500"
    },
    {
      "id": 840,
      "name": "Taman Medan Bakri,Jalan Muar",
      "route": "MU003",
      "bound_type": 1,
      "SEQUENCE": 14,
      "station_code": "MU003",
      "lat": "2.04366865",
      "lng": "102.64466500"
    },
    {
      "id": 772,
      "name": "SK Bakri Batu 5 (Jalan Muar)",
      "route": "MU003",
      "bound_type": 1,
      "SEQUENCE": 15,
      "station_code": "MU003",
      "lat": "2.04470000",
      "lng": "102.63900000"
    },
    {
      "id": 841,
      "name": "Kampung Sri Tanjung,Jalan Muar",
      "route": "MU003",
      "bound_type": 1,
      "SEQUENCE": 16,
      "station_code": "MU003",
      "lat": "2.04483761",
      "lng": "102.63718040"
    },
    {
      "id": 776,
      "name": "Taman Fajar (Bus Stop)",
      "route": "MU003",
      "bound_type": 1,
      "SEQUENCE": 17,
      "station_code": "MU003",
      "lat": "2.04591300",
      "lng": "102.62533700"
    },
    {
      "id": 843,
      "name": "Taman Seri Bakri",
      "route": "MU003",
      "bound_type": 1,
      "SEQUENCE": 18,
      "station_code": "MU003",
      "lat": "2.04592354",
      "lng": "102.62419450"
    },
    {
      "id": 844,
      "name": "Taman Seri Bakri II",
      "route": "MU003",
      "bound_type": 1,
      "SEQUENCE": 19,
      "station_code": "MU003",
      "lat": "2.04603724",
      "lng": "102.62270010"
    },