[
  {
    "id": 1136,
    "name": "Terminal Bas Dan Teksi Labis",
    "route": "LB003",
    "bound_type": 1,
    "sequence": 1,
    "station_code": "LB001, LB002",
    "lat": "2.38510761",
    "lng": "103.02196190",
    "intersections": [
      {
        "withRoute": "LB001",
        "stopId": 703,
        "distance": 0
      },
      {
        "withRoute": "LB001A",
        "stopId": 2331,
        "distance": 0
      }
    ]
  },
  {
    "id": 2652,
    "name": "SMK Seri Bali ",
    "route": "LB003",
    "bound_type": 1,
    "sequence": 2,
    "station_code": null,
    "lat": "2.23483992",
    "lng": "103.04024831",
    "distance": 18304.9,
    "intersections": [
      {
        "withRoute": "LB003",
        "stopId": 2326,
        "distance": 154.6
      }
    ]
  },
  {
    "id": 691,
    "name": "Pejabat Pos Labis",
    "route": "LB003",
    "bound_type": 1,
    "sequence": 2,
    "station_code": "LB002",
    "lat": "2.38159390",
    "lng": "103.02047020",
    "distance": 17397.3
  },
  {
    "id": 690,
    "name": "SK LABIS",
    "route": "LB003",
    "bound_type": 1,
    "sequence": 3,
    "station_code": "LB002",
    "lat": "2.38058118",
    "lng": "103.02181850",
    "distance": 187.4
  },
  {
    "id": 692,
    "name": "TAMAN SURIA",
    "route": "LB003",
    "bound_type": 1,
    "sequence": 4,
    "station_code": "LB002",
    "lat": "2.37308672",
    "lng": "103.03208050",
    "distance": 1422.6,
    "intersections": [
      {
        "withRoute": "LB003",
        "stopId": 2778,
        "distance": 205.1
      }
    ]
  },
  {
    "id": 695,
    "name": "SJK (C) KARAS, JALAN LABIS",
    "route": "LB003",
    "bound_type": 1,
    "sequence": 5,
    "station_code": "LB002",
    "lat": "2.35534484",
    "lng": "103.03657250",
    "distance": 2068.2,
    "intersections": [
      {
        "withRoute": "LB003",
        "stopId": 2777,
        "distance": 27.7
      }
    ]
  },
  {
    "id": 701,
    "name": "KAMPUNG USAHA JAYA (MENGHALA CHAAH)",
    "route": "LB003",
    "bound_type": 1,
    "sequence": 6,
    "station_code": "LB002",
    "lat": "2.33830132",
    "lng": "103.04335290",
    "distance": 2118.4,
    "intersections": [
      {
        "withRoute": "LB003",
        "stopId": 2776,
        "distance": 63.9
      }
    ]
  },
  {
    "id": 700,
    "name": "Persimpangan Moakil (To Chaah)",
    "route": "LB003",
    "bound_type": 1,
    "sequence": 7,
    "station_code": "LB002",
    "lat": "2.31609000",
    "lng": "103.04221600",
    "distance": 2466.4,
    "intersections": [
      {
        "withRoute": "LB003",
        "stopId": 2775,
        "distance": 96.9
      }
    ]
  },
  {
    "id": 680,
    "name": "Persimpangan Bekok (To Bekok)",
    "route": "LB003",
    "bound_type": 1,
    "sequence": 8,
    "station_code": "LB002",
    "lat": "2.28037700",
    "lng": "103.03957600",
    "distance": 4098.5,
    "intersections": [
      {
        "withRoute": "LB003",
        "stopId": 2771,
        "distance": 130.5
      },
      {
        "withRoute": "LB003",
        "stopId": 2772,
        "distance": -0.2
      },
      {
        "withRoute": "LB003",
        "stopId": 2774,
        "distance": 109.4
      }
    ]
  },
  {
    "id": 683,
    "name": " Kampung Melayu Baru Bekok",
    "route": "LB003",
    "bound_type": 1,
    "sequence": 9,
    "station_code": "LB002",
    "lat": "2.29664000",
    "lng": "103.12517800",
    "distance": 10295.9,
    "intersections": [
      {
        "withRoute": "LB003",
        "stopId": 696,
        "distance": 1.1
      }
    ]
  },
  {
    "id": 707,
    "name": "Sekolah Menengah Kebangsaan Bekok",
    "route": "LB003",
    "bound_type": 1,
    "sequence": 10,
    "station_code": "LB002",
    "lat": "2.29540325",
    "lng": "103.12211360",
    "distance": 400.7,
    "intersections": [
      {
        "withRoute": "LB003",
        "stopId": 693,
        "distance": 0
      }
    ]
  },
  {
    "id": 706,
    "name": "Asrama SMK Bekok",
    "route": "LB003",
    "bound_type": 1,
    "sequence": 11,
    "station_code": "LB002",
    "lat": "2.29458364",
    "lng": "103.11961320",
    "distance": 290,
    "intersections": [
      {
        "withRoute": "LB003",
        "stopId": 2773,
        "distance": -0.1
      }
    ]
  }
]