[
  {
    "id": 2414,
    "name": "Perhentian Bas dan Teksi Simpang Renggam",
    "route": "SR001A",
    "bound_type": 2,
    "sequence": 1,
    "station_code": null,
    "lat": "1.82568869",
    "lng": "103.30996060",
    "intersections": [
      {
        "withRoute": "SR001",
        "stopId": 2420,
        "distance": 0
      },
      {
        "withRoute": "SR003",
        "stopId": 2422,
        "distance": 0
      }
    ]
  },
  {
    "id": 2380,
    "name": "SK Simpang Renggam",
    "route": "SR001A",
    "bound_type": 2,
    "sequence": 2,
    "station_code": null,
    "lat": "1.82918780",
    "lng": "103.31139670",
    "distance": 699.5,
    "intersections": [
      {
        "withRoute": "SR003",
        "stopId": 1020,
        "distance": 30.1
      },
      {
        "withRoute": "SR003",
        "stopId": 1021,
        "distance": 0
      }
    ]
  },
  {
    "id": 2381,
    "name": "Simpang lorong Murni",
    "route": "SR001A",
    "bound_type": 2,
    "sequence": 3,
    "station_code": null,
    "lat": "1.83532740",
    "lng": "103.32012500",
    "distance": 1228.2,
    "intersections": [
      {
        "withRoute": "SR003",
        "stopId": 1126,
        "distance": 42.4
      },
      {
        "withRoute": "SR003",
        "stopId": 1125,
        "distance": 246
      },
      {
        "withRoute": "SR003",
        "stopId": 1127,
        "distance": 0
      }
    ]
  },
  {
    "id": 2382,
    "name": "Taman Purnama",
    "route": "SR001A",
    "bound_type": 2,
    "sequence": 4,
    "station_code": null,
    "lat": "1.83755901",
    "lng": "103.32331530",
    "distance": 445.6,
    "intersections": [
      {
        "withRoute": "SR003",
        "stopId": 1130,
        "distance": 30.9
      },
      {
        "withRoute": "SR003",
        "stopId": 1128,
        "distance": 161.5
      },
      {
        "withRoute": "SR003",
        "stopId": 1129,
        "distance": 0
      }
    ]
  },
  {
    "id": 2384,
    "name": "Taman Renggam Jaya ( Tiang 2)",
    "route": "SR001A",
    "bound_type": 2,
    "sequence": 5,
    "station_code": null,
    "lat": "1.83816981",
    "lng": "103.32792240",
    "distance": 517.2,
    "intersections": [
      {
        "withRoute": "SR003",
        "stopId": 1032,
        "distance": 182
      },
      {
        "withRoute": "SR003",
        "stopId": 1131,
        "distance": 0
      }
    ]
  },
  {
    "id": 2385,
    "name": "Penjara Simpang Renggam",
    "route": "SR001A",
    "bound_type": 2,
    "sequence": 6,
    "station_code": null,
    "lat": "1.84236279",
    "lng": "103.33840480",
    "distance": 1308.5,
    "intersections": [
      {
        "withRoute": "SR003",
        "stopId": 1133,
        "distance": 197.3
      },
      {
        "withRoute": "SR003",
        "stopId": 1033,
        "distance": 0
      }
    ]
  },
  {
    "id": 2386,
    "name": "Penjara Simpang Renggam (Tiang 2)",
    "route": "SR001A",
    "bound_type": 2,
    "sequence": 7,
    "station_code": null,
    "lat": "1.84213880",
    "lng": "103.33808540",
    "distance": 197.3,
    "intersections": [
      {
        "withRoute": "SR003",
        "stopId": 1133,
        "distance": 0
      },
      {
        "withRoute": "SR003",
        "stopId": 1033,
        "distance": 159.4
      }
    ]
  },
  {
    "id": 2387,
    "name": "Taman Rengggam Jaya",
    "route": "SR001A",
    "bound_type": 2,
    "sequence": 8,
    "station_code": null,
    "lat": "1.83798842",
    "lng": "103.32792980",
    "distance": 1303.4,
    "intersections": [
      {
        "withRoute": "SR003",
        "stopId": 1032,
        "distance": 0
      },
      {
        "withRoute": "SR003",
        "stopId": 1131,
        "distance": 182
      }
    ]
  },
  {
    "id": 2388,
    "name": "Kampung Batu 7 Blok 3",
    "route": "SR001A",
    "bound_type": 2,
    "sequence": 9,
    "station_code": null,
    "lat": "1.83756592",
    "lng": "103.32563090",
    "distance": 451,
    "intersections": [
      {
        "withRoute": "SR003",
        "stopId": 1132,
        "distance": 0
      },
      {
        "withRoute": "SR003",
        "stopId": 1130,
        "distance": 240.5
      }
    ]
  },
  {
    "id": 2391,
    "name": "Taman Purnama (Tiang 2)",
    "route": "SR001A",
    "bound_type": 2,
    "sequence": 10,
    "station_code": null,
    "lat": "1.83739194",
    "lng": "103.32364070",
    "distance": 240.5,
    "intersections": [
      {
        "withRoute": "SR003",
        "stopId": 1132,
        "distance": 240.5
      },
      {
        "withRoute": "SR003",
        "stopId": 1130,
        "distance": 0
      },
      {
        "withRoute": "SR003",
        "stopId": 1128,
        "distance": 192.4
      },
      {
        "withRoute": "SR003",
        "stopId": 1129,
        "distance": 30.9
      }
    ]
  },
  {
    "id": 2392,
    "name": "Taman Permata",
    "route": "SR001A",
    "bound_type": 2,
    "sequence": 11,
    "station_code": null,
    "lat": "1.83661183",
    "lng": "103.32220610",
    "distance": 192.4,
    "intersections": [
      {
        "withRoute": "SR003",
        "stopId": 1130,
        "distance": 192.4
      },
      {
        "withRoute": "SR003",
        "stopId": 1128,
        "distance": 0
      },
      {
        "withRoute": "SR003",
        "stopId": 1129,
        "distance": 161.5
      }
    ]
  },
  {
    "id": 2393,
    "name": "Simpang Lorong Murni (Tiang 2)",
    "route": "SR001A",
    "bound_type": 2,
    "sequence": 12,
    "station_code": null,
    "lat": "1.83511908",
    "lng": "103.31984870",
    "distance": 326.6,
    "intersections": [
      {
        "withRoute": "SR003",
        "stopId": 1126,
        "distance": 0
      },
      {
        "withRoute": "SR003",
        "stopId": 1125,
        "distance": 215
      },
      {
        "withRoute": "SR003",
        "stopId": 1127,
        "distance": 42.4
      }
    ]
  },
  {
    "id": 2395,
    "name": "Taman Pinggir",
    "route": "SR001A",
    "bound_type": 2,
    "sequence": 13,
    "station_code": null,
    "lat": "1.83465673",
    "lng": "103.31801280",
    "distance": 215,
    "intersections": [
      {
        "withRoute": "SR003",
        "stopId": 1126,
        "distance": 215
      },
      {
        "withRoute": "SR003",
        "stopId": 1125,
        "distance": 0
      },
      {
        "withRoute": "SR003",
        "stopId": 1127,
        "distance": 246
      }
    ]
  },
  {
    "id": 2396,
    "name": "Kg. Cokro",
    "route": "SR001A",
    "bound_type": 2,
    "sequence": 14,
    "station_code": null,
    "lat": "1.83341328",
    "lng": "103.31564340",
    "distance": 304.8,
    "intersections": [
      {
        "withRoute": "SR003",
        "stopId": 1023,
        "distance": 0
      },
      {
        "withRoute": "SR003",
        "stopId": 1022,
        "distance": 194.9
      }
    ]
  },
  {
    "id": 2400,
    "name": "Simpang Jalan Hj Amir",
    "route": "SR001A",
    "bound_type": 2,
    "sequence": 15,
    "station_code": null,
    "lat": "1.83201681",
    "lng": "103.31460720",
    "distance": 194.9,
    "intersections": [
      {
        "withRoute": "SR003",
        "stopId": 1023,
        "distance": 194.9
      },
      {
        "withRoute": "SR003",
        "stopId": 1022,
        "distance": 0
      }
    ]
  },
  {
    "id": 2401,
    "name": "SK Simpang Renggam (Tiang 2)",
    "route": "SR001A",
    "bound_type": 2,
    "sequence": 16,
    "station_code": null,
    "lat": "1.82888451",
    "lng": "103.31127180",
    "distance": 512.6,
    "intersections": [
      {
        "withRoute": "SR003",
        "stopId": 1020,
        "distance": 0
      },
      {
        "withRoute": "SR003",
        "stopId": 1021,
        "distance": 30.1
      }
    ]
  },
  {
    "id": 2402,
    "name": "Wisma Peladang,Jalan Ayer Hitam",
    "route": "SR001A",
    "bound_type": 2,
    "sequence": 17,
    "station_code": null,
    "lat": "1.82267543",
    "lng": "103.31479480",
    "distance": 1058.8,
    "intersections": [
      {
        "withRoute": "SR001",
        "stopId": 605,
        "distance": 0
      }
    ]
  },
  {
    "id": 2403,
    "name": "Kampung Sahari,Jalan Ayer Hitam",
    "route": "SR001A",
    "bound_type": 2,
    "sequence": 18,
    "station_code": null,
    "lat": "1.82042296",
    "lng": "103.31684080",
    "distance": 339.5,
    "intersections": [
      {
        "withRoute": "SR001",
        "stopId": 2415,
        "distance": 0
      }
    ]
  },
  {
    "id": 2404,
    "name": "Opposite Sekolah Kebangsaan Dato Onn Jaafar,Jalan Ayer Hitam",
    "route": "SR001A",
    "bound_type": 2,
    "sequence": 19,
    "station_code": null,
    "lat": "1.81460103",
    "lng": "103.32118330",
    "distance": 812.9,
    "intersections": [
      {
        "withRoute": "SR001",
        "stopId": 600,
        "distance": 0
      }
    ]
  },
  {
    "id": 2405,
    "name": "Opposite SMK Simpang Rengam,Jalan Ayer Hitam",
    "route": "SR001A",
    "bound_type": 2,
    "sequence": 20,
    "station_code": null,
    "lat": "1.81286509",
    "lng": "103.32209270",
    "distance": 217,
    "intersections": [
      {
        "withRoute": "SR001",
        "stopId": 600,
        "distance": 217
      },
      {
        "withRoute": "SR001",
        "stopId": 599,
        "distance": 0
      }
    ]
  },
  {
    "id": 2406,
    "name": "Taman Perindustrian Rengland",
    "route": "SR001A",
    "bound_type": 2,
    "sequence": 21,
    "station_code": null,
    "lat": "1.79438023",
    "lng": "103.31925100",
    "distance": 2799.3
  },
  {
    "id": 2408,
    "name": "SMK Simpang Rengam,Jalan Ayer Hitam",
    "route": "SR001A",
    "bound_type": 2,
    "sequence": 22,
    "station_code": null,
    "lat": "1.81238000",
    "lng": "103.32201960",
    "distance": 2711,
    "intersections": [
      {
        "withRoute": "SR001",
        "stopId": 598,
        "distance": 0
      }
    ]
  },
  {
    "id": 2409,
    "name": "Sekolah Kebangsaan Dato Onn Jaafar,Jalan Ayer Hitam",
    "route": "SR001A",
    "bound_type": 2,
    "sequence": 23,
    "station_code": null,
    "lat": "1.81439752",
    "lng": "103.32087910",
    "distance": 264.6,
    "intersections": [
      {
        "withRoute": "SR001",
        "stopId": 601,
        "distance": 0
      }
    ]
  },
  {
    "id": 2410,
    "name": "Taman Purtimas",
    "route": "SR001A",
    "bound_type": 2,
    "sequence": 24,
    "station_code": null,
    "lat": "1.81464080",
    "lng": "103.32035930",
    "distance": 138.8,
    "intersections": [
      {
        "withRoute": "SR001",
        "stopId": 601,
        "distance": 138.8
      },
      {
        "withRoute": "SR001",
        "stopId": 608,
        "distance": 0
      }
    ]
  },
  {
    "id": 2411,
    "name": "Taman Rekamas 3",
    "route": "SR001A",
    "bound_type": 2,
    "sequence": 25,
    "station_code": null,
    "lat": "1.81815000",
    "lng": "103.30809000",
    "distance": 2479.4,
    "intersections": [
      {
        "withRoute": "SR001",
        "stopId": 607,
        "distance": 0
      }
    ]
  },
  {
    "id": 2412,
    "name": "Klinik Kesihatan Simpang Renggam",
    "route": "SR001A",
    "bound_type": 2,
    "sequence": 26,
    "station_code": null,
    "lat": "1.82589109",
    "lng": "103.30502750",
    "distance": 1274.9,
    "intersections": [
      {
        "withRoute": "SR001",
        "stopId": 2419,
        "distance": 0
      }
    ]
  },
  {
    "id": 2413,
    "name": "Taman Simpang Rengam,Jalan Ayer Hitam",
    "route": "SR001A",
    "bound_type": 2,
    "sequence": 27,
    "station_code": null,
    "lat": "1.83181103",
    "lng": "103.30759270",
    "distance": 1041.6,
    "intersections": [
      {
        "withRoute": "SR001",
        "stopId": 603,
        "distance": 0
      }
    ]
  }
]